{
  "type": "FeatureCollection",
  "features": [
    {
      "type": "Feature",
      "geometry": {
        "type": "Point",
        "coordinates": [
          139.7030842,
          35.53091408
        ]
      },
      "properties": {
        "台帳番号": 1,
        "設置場所": "川崎市役所本庁舎",
        "設置位置": "25階展望ロビー",
        "住所": "川崎区宮本町1番地",
        "24時間利用可能": "365日24時間使用可",
        "利用開始時間": "-",
        "利用終了時間": "-"
      }
    },
    {
      "type": "Feature",
      "geometry": {
        "type": "Point",
        "coordinates": [
          139.7024033,
          35.52980978
        ]
      },
      "properties": {
        "台帳番号": 2,
        "設置場所": "川崎市役所南庁舎",
        "設置位置": "1階守衛室",
        "住所": "川崎区東田町5-4",
        "24時間利用可能": "365日24時間使用可",
        "利用開始時間": "-",
        "利用終了時間": "-"
      }
    },
    {
      "type": "Feature",
      "geometry": {
        "type": "Point",
        "coordinates": [
          139.7035923,
          35.53193931
        ]
      },
      "properties": {
        "台帳番号": 3,
        "設置場所": "川崎市役所北庁舎",
        "設置位置": "1階エントランス",
        "住所": "川崎区宮本町3-3",
        "24時間利用可能": "365日24時間使用可",
        "利用開始時間": "-",
        "利用終了時間": "-"
      }
    },
    {
      "type": "Feature",
      "geometry": {
        "type": "Point",
        "coordinates": [
          139.7030842,
          35.53091408
        ]
      },
      "properties": {
        "台帳番号": 4,
        "設置場所": "川崎市役所本庁舎",
        "設置位置": "1階守衛室横",
        "住所": "川崎区宮本町1番地",
        "24時間利用可能": "365日24時間使用可",
        "利用開始時間": "-",
        "利用終了時間": "-"
      }
    },
    {
      "type": "Feature",
      "geometry": {
        "type": "Point",
        "coordinates": [
          139.7030842,
          35.53091408
        ]
      },
      "properties": {
        "台帳番号": 5,
        "設置場所": "川崎市役所本庁舎",
        "設置位置": "15階EVホール",
        "住所": "川崎区宮本町1番地",
        "24時間利用可能": "365日24時間使用可",
        "利用開始時間": "-",
        "利用終了時間": "-"
      }
    },
    {
      "type": "Feature",
      "geometry": {
        "type": "Point",
        "coordinates": [
          139.7024033,
          35.52980978
        ]
      },
      "properties": {
        "台帳番号": 6,
        "設置場所": "川崎市役所南庁舎",
        "設置位置": "18階EVホール",
        "住所": "川崎区東田町5-4",
        "24時間利用可能": "365日24時間使用可",
        "利用開始時間": "-",
        "利用終了時間": "-"
      }
    },
    {
      "type": "Feature",
      "geometry": {
        "type": "Point",
        "coordinates": [
          139.6065644,
          35.59939597
        ]
      },
      "properties": {
        "台帳番号": 7,
        "設置場所": "みぞのくち市税事務所",
        "設置位置": "2階玄関風除室",
        "住所": "高津区下作延2-7-60",
        "24時間利用可能": "365日24時間使用可ではない",
        "利用開始時間": "8時30分",
        "利用終了時間": "17時00分"
      }
    },
    {
      "type": "Feature",
      "geometry": {
        "type": "Point",
        "coordinates": [
          139.506207,
          35.60318183
        ]
      },
      "properties": {
        "台帳番号": 8,
        "設置場所": "しんゆり市税事務所",
        "設置位置": "5階待合スペース",
        "住所": "麻生区万福寺1-2-2 新百合21ビル 5階",
        "24時間利用可能": "365日24時間使用可ではない",
        "利用開始時間": "8時30分",
        "利用終了時間": "17時00分"
      }
    },
    {
      "type": "Feature",
      "geometry": {
        "type": "Point",
        "coordinates": [
          139.6104129,
          35.58482442
        ]
      },
      "properties": {
        "台帳番号": 9,
        "設置場所": "川崎市民プラザ",
        "設置位置": "1階中央監視室",
        "住所": "高津区新作1-19-1",
        "24時間利用可能": "365日24時間使用可ではない",
        "利用開始時間": "9時00分",
        "利用終了時間": "21時30分"
      }
    },
    {
      "type": "Feature",
      "geometry": {
        "type": "Point",
        "coordinates": [
          139.6104129,
          35.58482442
        ]
      },
      "properties": {
        "台帳番号": 10,
        "設置場所": "川崎市民プラザ",
        "設置位置": "1階プール指導員室",
        "住所": "高津区新作1-19-1",
        "24時間利用可能": "365日24時間使用可ではない",
        "利用開始時間": "9時00分",
        "利用終了時間": "21時30分"
      }
    },
    {
      "type": "Feature",
      "geometry": {
        "type": "Point",
        "coordinates": [
          139.6487301,
          35.56819708
        ]
      },
      "properties": {
        "台帳番号": 11,
        "設置場所": "川崎市国際交流センター",
        "設置位置": "1階エントランスホール",
        "住所": "中原区木月祗園町2-2",
        "24時間利用可能": "365日24時間使用可",
        "利用開始時間": "-",
        "利用終了時間": "-"
      }
    },
    {
      "type": "Feature",
      "geometry": {
        "type": "Point",
        "coordinates": [
          139.65848,
          35.57624
        ]
      },
      "properties": {
        "台帳番号": 12,
        "設置場所": "川崎市総合自治会館",
        "設置位置": "事務室前",
        "住所": "中原区小杉町3-600\nｺｽｷﾞｻｰﾄﾞｱｳﾞｪﾆｭｰ4階",
        "24時間利用可能": "365日24時間使用可ではない",
        "利用開始時間": "9時00分",
        "利用終了時間": "21時00分"
      }
    },
    {
      "type": "Feature",
      "geometry": {
        "type": "Point",
        "coordinates": [
          139.609174,
          35.604584
        ]
      },
      "properties": {
        "台帳番号": 13,
        "設置場所": "川崎市男女共同参画センター",
        "設置位置": "1階事務室",
        "住所": "高津区溝口2-20-1",
        "24時間利用可能": "365日24時間使用可ではない",
        "利用開始時間": "8時30分",
        "利用終了時間": "21時30分"
      }
    },
    {
      "type": "Feature",
      "geometry": {
        "type": "Point",
        "coordinates": [
          139.6589578,
          35.56873397
        ]
      },
      "properties": {
        "台帳番号": 14,
        "設置場所": "川崎市平和館",
        "設置位置": "1階ロビー",
        "住所": "中原区木月住吉町33-1",
        "24時間利用可能": "365日24時間使用可ではない",
        "利用開始時間": "8時30分",
        "利用終了時間": "21時30分"
      }
    },
    {
      "type": "Feature",
      "geometry": {
        "type": "Point",
        "coordinates": [
          139.5734323,
          35.60992364
        ]
      },
      "properties": {
        "台帳番号": 15,
        "設置場所": "藤子・Ｆ・不二雄ミュージアム",
        "設置位置": "1階事務室",
        "住所": "多摩区長尾2-8-1",
        "24時間利用可能": "365日24時間使用可ではない",
        "利用開始時間": "7時00分",
        "利用終了時間": "21時00分"
      }
    },
    {
      "type": "Feature",
      "geometry": {
        "type": "Point",
        "coordinates": [
          139.5057464,
          35.60584214
        ]
      },
      "properties": {
        "台帳番号": 16,
        "設置場所": "アートセンター",
        "設置位置": "2階受付",
        "住所": "麻生区万福寺6-7-1",
        "24時間利用可能": "365日24時間使用可ではない",
        "利用開始時間": "9時00分",
        "利用終了時間": "22時30分"
      }
    },
    {
      "type": "Feature",
      "geometry": {
        "type": "Point",
        "coordinates": [
          139.6947484,
          35.52753872
        ]
      },
      "properties": {
        "台帳番号": 17,
        "設置場所": "川崎能楽堂",
        "設置位置": "事務室",
        "住所": "川崎区日進町1-37",
        "24時間利用可能": "365日24時間使用可ではない",
        "利用開始時間": "9時00分",
        "利用終了時間": "21時00分"
      }
    },
    {
      "type": "Feature",
      "geometry": {
        "type": "Point",
        "coordinates": [
          139.6947596,
          35.53092736
        ]
      },
      "properties": {
        "台帳番号": 18,
        "設置場所": "ミューザ川崎シンフォニーホール",
        "設置位置": "音楽工房ロビー",
        "住所": "幸区大宮町1310",
        "24時間利用可能": "365日24時間使用可ではない",
        "利用開始時間": "9時00分",
        "利用終了時間": "22時00分"
      }
    },
    {
      "type": "Feature",
      "geometry": {
        "type": "Point",
        "coordinates": [
          139.6985923,
          35.53198675
        ]
      },
      "properties": {
        "台帳番号": 19,
        "設置場所": "アートガーデンかわさき",
        "設置位置": "事務室",
        "住所": "川崎区駅前本町12-1タワーリバーク3F",
        "24時間利用可能": "365日24時間使用可ではない",
        "利用開始時間": "10時00分",
        "利用終了時間": "19時00分"
      }
    },
    {
      "type": "Feature",
      "geometry": {
        "type": "Point",
        "coordinates": [
          139.62603,
          35.60207
        ]
      },
      "properties": {
        "台帳番号": 20,
        "設置場所": "小黒恵子童謡記念館",
        "設置位置": "受付",
        "住所": "高津区諏訪3-13-8",
        "24時間利用可能": "365日24時間使用可ではない",
        "利用開始時間": "10時00分",
        "利用終了時間": "17時00分"
      }
    },
    {
      "type": "Feature",
      "geometry": {
        "type": "Point",
        "coordinates": [
          139.5734323,
          35.60992364
        ]
      },
      "properties": {
        "台帳番号": 21,
        "設置場所": "藤子・Ｆ・不二雄ミュージアム",
        "設置位置": "２階作業室 ",
        "住所": "多摩区長尾2-8-1",
        "24時間利用可能": "365日24時間使用可ではない",
        "利用開始時間": "7時00分",
        "利用終了時間": "21時00分"
      }
    },
    {
      "type": "Feature",
      "geometry": {
        "type": "Point",
        "coordinates": [
          139.4946869,
          35.58485686
        ]
      },
      "properties": {
        "台帳番号": 22,
        "設置場所": "市民ミュージアム",
        "設置位置": "2階事務室",
        "住所": "麻生区上麻生6-15-2",
        "24時間利用可能": "365日24時間使用可ではない",
        "利用開始時間": "8時30分",
        "利用終了時間": "17時15分"
      }
    },
    {
      "type": "Feature",
      "geometry": {
        "type": "Point",
        "coordinates": [
          139.5574537,
          35.60806917
        ]
      },
      "properties": {
        "台帳番号": 23,
        "設置場所": "岡本太郎美術館",
        "設置位置": "1階エントランスホール",
        "住所": "多摩区枡形7-1-5",
        "24時間利用可能": "365日24時間使用可",
        "利用開始時間": "-",
        "利用終了時間": "-"
      }
    },
    {
      "type": "Feature",
      "geometry": {
        "type": "Point",
        "coordinates": [
          139.7008481,
          35.53523033
        ]
      },
      "properties": {
        "台帳番号": 24,
        "設置場所": "産業振興会館",
        "設置位置": "6階",
        "住所": "幸区堀川町66-20",
        "24時間利用可能": "365日24時間使用可ではない",
        "利用開始時間": "9時",
        "利用終了時間": "21時"
      }
    },
    {
      "type": "Feature",
      "geometry": {
        "type": "Point",
        "coordinates": [
          139.7127823,
          35.49552769
        ]
      },
      "properties": {
        "台帳番号": 25,
        "設置場所": "大川町産業会館",
        "設置位置": "1階",
        "住所": "川崎区大川町9-2",
        "24時間利用可能": "365日24時間使用可ではない",
        "利用開始時間": "9時00分",
        "利用終了時間": "17時00分"
      }
    },
    {
      "type": "Feature",
      "geometry": {
        "type": "Point",
        "coordinates": [
          139.7231578,
          35.51444681
        ]
      },
      "properties": {
        "台帳番号": 26,
        "設置場所": "浅野町工場会館",
        "設置位置": "2階",
        "住所": "川崎区浅野町1-4",
        "24時間利用可能": "365日24時間使用可ではない",
        "利用開始時間": "9時00分",
        "利用終了時間": "17時00分"
      }
    },
    {
      "type": "Feature",
      "geometry": {
        "type": "Point",
        "coordinates": [
          139.7008481,
          35.53523033
        ]
      },
      "properties": {
        "台帳番号": 27,
        "設置場所": "産業振興会館",
        "設置位置": "1階",
        "住所": "幸区堀川町66-20",
        "24時間利用可能": "365日24時間使用可ではない",
        "利用開始時間": "9時",
        "利用終了時間": "21時"
      }
    },
    {
      "type": "Feature",
      "geometry": {
        "type": "Point",
        "coordinates": [
          139.5230607,
          35.62495819
        ]
      },
      "properties": {
        "台帳番号": 28,
        "設置場所": "農業技術支援センター",
        "設置位置": "1階",
        "住所": "多摩区菅仙谷3-17-1",
        "24時間利用可能": "365日24時間使用可ではない",
        "利用開始時間": "8時30分",
        "利用終了時間": "17時15分"
      }
    },
    {
      "type": "Feature",
      "geometry": {
        "type": "Point",
        "coordinates": [
          139.6727893,
          35.54563214
        ]
      },
      "properties": {
        "台帳番号": 29,
        "設置場所": "かわさき新産業創造センター",
        "設置位置": "NANOBIC1階アメニティ",
        "住所": "幸区新川崎7-7",
        "24時間利用可能": "365日24時間使用可ではない",
        "利用開始時間": "9時00分",
        "利用終了時間": "17時00分"
      }
    },
    {
      "type": "Feature",
      "geometry": {
        "type": "Point",
        "coordinates": [
          139.672126,
          35.546019
        ]
      },
      "properties": {
        "台帳番号": 30,
        "設置場所": "かわさき新産業創造センター",
        "設置位置": "KBIC本館1階アメニティ",
        "住所": "幸区新川崎7-7",
        "24時間利用可能": "365日24時間使用可ではない",
        "利用開始時間": "9時00分",
        "利用終了時間": "17時00分"
      }
    },
    {
      "type": "Feature",
      "geometry": {
        "type": "Point",
        "coordinates": [
          139.6712461,
          35.54677647
        ]
      },
      "properties": {
        "台帳番号": 31,
        "設置場所": "慶應義塾大学新川崎タウンキャンパス厚生棟",
        "設置位置": "受付横の机上",
        "住所": "幸区新川崎7-1",
        "24時間利用可能": "365日24時間使用可ではない",
        "利用開始時間": "8時30分",
        "利用終了時間": "17時00分"
      }
    },
    {
      "type": "Feature",
      "geometry": {
        "type": "Point",
        "coordinates": [
          139.61401,
          35.59881
        ]
      },
      "properties": {
        "台帳番号": 32,
        "設置場所": "川崎市生活文化会館てくのかわさき",
        "設置位置": "２階事務所",
        "住所": "高津区溝口1-6-10",
        "24時間利用可能": "365日24時間使用可ではない",
        "利用開始時間": "9時00分",
        "利用終了時間": "22時00分"
      }
    },
    {
      "type": "Feature",
      "geometry": {
        "type": "Point",
        "coordinates": [
          139.7094425,
          35.52907175
        ]
      },
      "properties": {
        "台帳番号": 33,
        "設置場所": "川崎競輪場",
        "設置位置": "ファン救護室",
        "住所": "川崎区富士見2-1-6",
        "24時間利用可能": "365日24時間使用可ではない",
        "利用開始時間": "9時00分",
        "利用終了時間": "17時00分"
      }
    },
    {
      "type": "Feature",
      "geometry": {
        "type": "Point",
        "coordinates": [
          139.7094425,
          35.52907175
        ]
      },
      "properties": {
        "台帳番号": 34,
        "設置場所": "川崎競輪場",
        "設置位置": "メインスタンド5階総合案内内側",
        "住所": "川崎区富士見2-1-6",
        "24時間利用可能": "365日24時間使用可ではない",
        "利用開始時間": "9時00分",
        "利用終了時間": "17時00分"
      }
    },
    {
      "type": "Feature",
      "geometry": {
        "type": "Point",
        "coordinates": [
          139.7094425,
          35.52907175
        ]
      },
      "properties": {
        "台帳番号": 35,
        "設置場所": "川崎競輪場",
        "設置位置": "西スタンド1階総合案内内側",
        "住所": "川崎区富士見2-1-6",
        "24時間利用可能": "365日24時間使用可ではない",
        "利用開始時間": "9時00分",
        "利用終了時間": "17時00分"
      }
    },
    {
      "type": "Feature",
      "geometry": {
        "type": "Point",
        "coordinates": [
          139.7094425,
          35.52907175
        ]
      },
      "properties": {
        "台帳番号": 36,
        "設置場所": "川崎競輪場",
        "設置位置": "選手入場門",
        "住所": "川崎区富士見2-1-6",
        "24時間利用可能": "365日24時間使用可ではない",
        "利用開始時間": "9時00分",
        "利用終了時間": "17時00分"
      }
    },
    {
      "type": "Feature",
      "geometry": {
        "type": "Point",
        "coordinates": [
          139.6860804,
          35.54575472
        ]
      },
      "properties": {
        "台帳番号": 37,
        "設置場所": "小向会館",
        "設置位置": "1階エントランス",
        "住所": "幸区小向西町4-110",
        "24時間利用可能": "365日24時間使用可ではない",
        "利用開始時間": "施設利用開始時間",
        "利用終了時間": "施設利用終了時間"
      }
    },
    {
      "type": "Feature",
      "geometry": {
        "type": "Point",
        "coordinates": [
          139.6850476,
          35.53303425
        ]
      },
      "properties": {
        "台帳番号": 38,
        "設置場所": "南部市場",
        "設置位置": "守衛室",
        "住所": "幸区南幸町3-126-1",
        "24時間利用可能": "365日24時間使用可",
        "利用開始時間": "-",
        "利用終了時間": "-"
      }
    },
    {
      "type": "Feature",
      "geometry": {
        "type": "Point",
        "coordinates": [
          139.54954,
          35.59128
        ]
      },
      "properties": {
        "台帳番号": 39,
        "設置場所": "北部市場",
        "設置位置": "北門守衛室",
        "住所": "宮前区水沢1-1-1",
        "24時間利用可能": "365日24時間使用可",
        "利用開始時間": "-",
        "利用終了時間": "-"
      }
    },
    {
      "type": "Feature",
      "geometry": {
        "type": "Point",
        "coordinates": [
          139.549274,
          35.590015
        ]
      },
      "properties": {
        "台帳番号": 40,
        "設置場所": "北部市場",
        "設置位置": "南門郵便局前",
        "住所": "宮前区水沢1-1-1",
        "24時間利用可能": "365日24時間使用可",
        "利用開始時間": "-",
        "利用終了時間": "-"
      }
    },
    {
      "type": "Feature",
      "geometry": {
        "type": "Point",
        "coordinates": [
          139.7419888,
          35.50468394
        ]
      },
      "properties": {
        "台帳番号": 41,
        "設置場所": "川崎エコタウン会館",
        "設置位置": "1階ロビー（入口付近）",
        "住所": "川崎区水江町6-6",
        "24時間利用可能": "365日24時間使用可ではない",
        "利用開始時間": "9時00分",
        "利用終了時間": "16時00分"
      }
    },
    {
      "type": "Feature",
      "geometry": {
        "type": "Point",
        "coordinates": [
          139.6570367,
          35.57770725
        ]
      },
      "properties": {
        "台帳番号": 42,
        "設置場所": "川崎市コンベンションホール",
        "設置位置": "2階事務所",
        "住所": "中原区小杉町2-276-1",
        "24時間利用可能": "365日24時間使用可ではない",
        "利用開始時間": "9時00分",
        "利用終了時間": "22時00分"
      }
    },
    {
      "type": "Feature",
      "geometry": {
        "type": "Point",
        "coordinates": [
          139.524814,
          35.591437
        ]
      },
      "properties": {
        "台帳番号": 43,
        "設置場所": "王禅寺処理センター",
        "設置位置": "B1階玄関ホール",
        "住所": "麻生区王禅寺1285",
        "24時間利用可能": "365日24時間使用可ではない",
        "利用開始時間": "8時30分",
        "利用終了時間": "17時15分"
      }
    },
    {
      "type": "Feature",
      "geometry": {
        "type": "Point",
        "coordinates": [
          139.608616,
          35.585733
        ]
      },
      "properties": {
        "台帳番号": 44,
        "設置場所": "橘処理センター",
        "設置位置": "2階市管理事務室",
        "住所": "高津区新作1-20-1",
        "24時間利用可能": "365日24時間使用可ではない",
        "利用開始時間": "8時30分",
        "利用終了時間": "17時15分"
      }
    },
    {
      "type": "Feature",
      "geometry": {
        "type": "Point",
        "coordinates": [
          139.7836408,
          35.51469447
        ]
      },
      "properties": {
        "台帳番号": 45,
        "設置場所": "浮島処理センター",
        "設置位置": "4階事務室",
        "住所": "川崎区浮島町509-1",
        "24時間利用可能": "365日24時間使用可ではない",
        "利用開始時間": "8時30分",
        "利用終了時間": "17時15分"
      }
    },
    {
      "type": "Feature",
      "geometry": {
        "type": "Point",
        "coordinates": [
          139.7837039,
          35.515337
        ]
      },
      "properties": {
        "台帳番号": 46,
        "設置場所": "かわさきエコ暮らし未来館",
        "設置位置": "2階事務室",
        "住所": "川崎区浮島町509-1",
        "24時間利用可能": "365日24時間使用可ではない",
        "利用開始時間": "9時00分",
        "利用終了時間": "16時30分"
      }
    },
    {
      "type": "Feature",
      "geometry": {
        "type": "Point",
        "coordinates": [
          139.5246009,
          35.59358892
        ]
      },
      "properties": {
        "台帳番号": 47,
        "設置場所": "王禅寺余熱利用市民施設",
        "設置位置": "1階プール監視室",
        "住所": "麻生区王禅寺1321",
        "24時間利用可能": "365日24時間使用可ではない",
        "利用開始時間": "9時00分",
        "利用終了時間": "21時00分"
      }
    },
    {
      "type": "Feature",
      "geometry": {
        "type": "Point",
        "coordinates": [
          139.5246009,
          35.59358892
        ]
      },
      "properties": {
        "台帳番号": 48,
        "設置場所": "王禅寺余熱利用市民施設",
        "設置位置": "3階フロント",
        "住所": "麻生区王禅寺1321",
        "24時間利用可能": "365日24時間使用可ではない",
        "利用開始時間": "9時00分",
        "利用終了時間": "21時00分"
      }
    },
    {
      "type": "Feature",
      "geometry": {
        "type": "Point",
        "coordinates": [
          139.609155,
          35.585979
        ]
      },
      "properties": {
        "台帳番号": 49,
        "設置場所": "橘処理センター",
        "設置位置": "４階見学者通路",
        "住所": "高津区新作1-20-1",
        "24時間利用可能": "365日24時間使用可ではない",
        "利用開始時間": "8時30分",
        "利用終了時間": "17時15分"
      }
    },
    {
      "type": "Feature",
      "geometry": {
        "type": "Point",
        "coordinates": [
          139.5247719,
          35.59228081
        ]
      },
      "properties": {
        "台帳番号": 50,
        "設置場所": "王禅寺エコ暮らし環境館",
        "設置位置": "3階展示室内受付",
        "住所": "麻生区王禅寺1285",
        "24時間利用可能": "365日24時間使用可ではない",
        "利用開始時間": "9時",
        "利用終了時間": "16時30分"
      }
    },
    {
      "type": "Feature",
      "geometry": {
        "type": "Point",
        "coordinates": [
          139.5247697,
          35.59243283
        ]
      },
      "properties": {
        "台帳番号": 51,
        "設置場所": "王禅寺処理センター資源化処理施設",
        "設置位置": "4階中央操作室内",
        "住所": "麻生区王禅寺1285",
        "24時間利用可能": "365日24時間使用可ではない",
        "利用開始時間": "8時30分",
        "利用終了時間": "17時15分"
      }
    },
    {
      "type": "Feature",
      "geometry": {
        "type": "Point",
        "coordinates": [
          139.7844542,
          35.51536603
        ]
      },
      "properties": {
        "台帳番号": 52,
        "設置場所": "浮島処理センター資源化処理施設",
        "設置位置": "２階中央制御室内",
        "住所": "川崎区浮島町509-1",
        "24時間利用可能": "365日24時間使用可ではない",
        "利用開始時間": "8時30分",
        "利用終了時間": "17時15分"
      }
    },
    {
      "type": "Feature",
      "geometry": {
        "type": "Point",
        "coordinates": [
          139.74379,
          35.51974
        ]
      },
      "properties": {
        "台帳番号": 53,
        "設置場所": "南部リサイクルセンター",
        "設置位置": "１階玄関",
        "住所": "川崎区夜光3-１-３",
        "24時間利用可能": "365日24時間使用可ではない",
        "利用開始時間": "8時30分",
        "利用終了時間": "17時15分"
      }
    },
    {
      "type": "Feature",
      "geometry": {
        "type": "Point",
        "coordinates": [
          139.7489482,
          35.5307412
        ]
      },
      "properties": {
        "台帳番号": 54,
        "設置場所": "川崎生活環境事業所",
        "設置位置": "来客用受付カウンター",
        "住所": "川崎区塩浜4-１１-９",
        "24時間利用可能": "365日24時間使用可ではない",
        "利用開始時間": "8時00分",
        "利用終了時間": "16時45分"
      }
    },
    {
      "type": "Feature",
      "geometry": {
        "type": "Point",
        "coordinates": [
          139.6620559,
          35.56999724
        ]
      },
      "properties": {
        "台帳番号": 55,
        "設置場所": "中原生活環境事業所",
        "設置位置": "来客用受付カウンター",
        "住所": "中原区中丸子155-1",
        "24時間利用可能": "365日24時間使用可ではない",
        "利用開始時間": "8時00分",
        "利用終了時間": "16時45分"
      }
    },
    {
      "type": "Feature",
      "geometry": {
        "type": "Point",
        "coordinates": [
          139.5951937,
          35.59010087
        ]
      },
      "properties": {
        "台帳番号": 56,
        "設置場所": "宮前生活環境事業所",
        "設置位置": "編成室１階カウンター",
        "住所": "川崎市宮前区宮崎１７２",
        "24時間利用可能": "365日24時間使用可ではない",
        "利用開始時間": "8時00分",
        "利用終了時間": "16時45分"
      }
    },
    {
      "type": "Feature",
      "geometry": {
        "type": "Point",
        "coordinates": [
          139.5527836,
          35.61985745
        ]
      },
      "properties": {
        "台帳番号": 57,
        "設置場所": "多摩生活環境事業所",
        "設置位置": "来庁者入口",
        "住所": "多摩区枡形1-14-1",
        "24時間利用可能": "365日24時間使用可ではない",
        "利用開始時間": "8時00分",
        "利用終了時間": "16時45分"
      }
    },
    {
      "type": "Feature",
      "geometry": {
        "type": "Point",
        "coordinates": [
          139.6371519,
          35.59885556
        ]
      },
      "properties": {
        "台帳番号": 58,
        "設置場所": "生活づくり支援ホーム下野毛",
        "設置位置": "1階入口玄関",
        "住所": "高津区下野毛1-7-16",
        "24時間利用可能": "365日24時間使用可",
        "利用開始時間": "-",
        "利用終了時間": "-"
      }
    },
    {
      "type": "Feature",
      "geometry": {
        "type": "Point",
        "coordinates": [
          139.6934103,
          35.52476531
        ]
      },
      "properties": {
        "台帳番号": 59,
        "設置場所": "川崎市自立支援センター日進町",
        "設置位置": "1階事務所内",
        "住所": "川崎区日進町12-11",
        "24時間利用可能": "365日24時間使用可",
        "利用開始時間": "-",
        "利用終了時間": "-"
      }
    },
    {
      "type": "Feature",
      "geometry": {
        "type": "Point",
        "coordinates": [
          139.6852039,
          35.53066292
        ]
      },
      "properties": {
        "台帳番号": 60,
        "設置場所": "川崎市自立支援センター南幸町",
        "設置位置": "1階受付内",
        "住所": "幸区南幸町3-105",
        "24時間利用可能": "365日24時間使用可",
        "利用開始時間": "-",
        "利用終了時間": "-"
      }
    },
    {
      "type": "Feature",
      "geometry": {
        "type": "Point",
        "coordinates": [
          139.6423532,
          35.58108728
        ]
      },
      "properties": {
        "台帳番号": 61,
        "設置場所": "川崎市総合福祉センター（エポックなかはら）",
        "設置位置": "1階事務室",
        "住所": "中原区上小田中6-22-5",
        "24時間利用可能": "365日24時間使用可ではない",
        "利用開始時間": "8時30分",
        "利用終了時間": "21時00分"
      }
    },
    {
      "type": "Feature",
      "geometry": {
        "type": "Point",
        "coordinates": [
          139.7114864,
          35.53057717
        ]
      },
      "properties": {
        "台帳番号": 62,
        "設置場所": "福祉パルかわさき",
        "設置位置": "事務室",
        "住所": "川崎区富士見1-6-3　読売川崎富士見ビルB1棟6階",
        "24時間利用可能": "365日24時間使用可ではない",
        "利用開始時間": "8時30分",
        "利用終了時間": "17時00分\n火・木曜は21時00分"
      }
    },
    {
      "type": "Feature",
      "geometry": {
        "type": "Point",
        "coordinates": [
          139.6868368,
          35.54385697
        ]
      },
      "properties": {
        "台帳番号": 63,
        "設置場所": "福祉パルさいわい",
        "設置位置": "１階事務室",
        "住所": "幸区戸手本町1-11-5",
        "24時間利用可能": "365日24時間使用可ではない",
        "利用開始時間": "8時30分",
        "利用終了時間": "17時00分\n火・金曜は21時00分"
      }
    },
    {
      "type": "Feature",
      "geometry": {
        "type": "Point",
        "coordinates": [
          139.6534945,
          35.57687017
        ]
      },
      "properties": {
        "台帳番号": 64,
        "設置場所": "福祉パルなかはら",
        "設置位置": "事務室",
        "住所": "中原区今井上町1-34　和田ビル1階",
        "24時間利用可能": "365日24時間使用可ではない",
        "利用開始時間": "8時30分",
        "利用終了時間": "17時00分\n火・木曜は21時00分"
      }
    },
    {
      "type": "Feature",
      "geometry": {
        "type": "Point",
        "coordinates": [
          139.61384,
          35.59884
        ]
      },
      "properties": {
        "台帳番号": 65,
        "設置場所": "福祉パルたかつ",
        "設置位置": "事務室",
        "住所": "高津区溝口1-6-10 てくのかわさき3階",
        "24時間利用可能": "365日24時間使用可ではない",
        "利用開始時間": "8時30分",
        "利用終了時間": "17時00分\n火・木曜は21時00分"
      }
    },
    {
      "type": "Feature",
      "geometry": {
        "type": "Point",
        "coordinates": [
          139.5892217,
          35.58792314
        ]
      },
      "properties": {
        "台帳番号": 66,
        "設置場所": "福祉パルみやまえ",
        "設置位置": "事務室",
        "住所": "宮前区宮崎2-6-10　宮崎台ガーデンオフィス4階",
        "24時間利用可能": "365日24時間使用可ではない",
        "利用開始時間": "8時30分",
        "利用終了時間": "17時00分\n火・金曜は21時00分"
      }
    },
    {
      "type": "Feature",
      "geometry": {
        "type": "Point",
        "coordinates": [
          139.5608049,
          35.62001831
        ]
      },
      "properties": {
        "台帳番号": 67,
        "設置場所": "福祉パルたま",
        "設置位置": "事務室",
        "住所": "多摩区登戸1891　第3井出ビル3階",
        "24時間利用可能": "365日24時間使用可ではない",
        "利用開始時間": "8時30分",
        "利用終了時間": "17時00分\n火・木曜は21時00分"
      }
    },
    {
      "type": "Feature",
      "geometry": {
        "type": "Point",
        "coordinates": [
          139.5061149,
          35.60318158
        ]
      },
      "properties": {
        "台帳番号": 68,
        "設置場所": "福祉パルあさお",
        "設置位置": "事務室",
        "住所": "麻生区万福寺1-2-2　新百合トウェンティワンビル1階",
        "24時間利用可能": "365日24時間使用可ではない",
        "利用開始時間": "8時30分",
        "利用終了時間": "17時00分\n火・木曜は21時00分"
      }
    },
    {
      "type": "Feature",
      "geometry": {
        "type": "Point",
        "coordinates": [
          139.6056274,
          35.59717319
        ]
      },
      "properties": {
        "台帳番号": 69,
        "設置場所": "養護老人ホーム恵楽園",
        "設置位置": "3階当直室",
        "住所": "高津区下作延2-26-1",
        "24時間利用可能": "365日24時間使用可",
        "利用開始時間": "-",
        "利用終了時間": "-"
      }
    },
    {
      "type": "Feature",
      "geometry": {
        "type": "Point",
        "coordinates": [
          139.5518006,
          35.63222367
        ]
      },
      "properties": {
        "台帳番号": 70,
        "設置場所": "多摩川の里身体障害者福祉会館",
        "設置位置": "1階事務室前",
        "住所": "多摩区中野島6-13-5",
        "24時間利用可能": "365日24時間使用可ではない",
        "利用開始時間": "8時30分",
        "利用終了時間": "21時"
      }
    },
    {
      "type": "Feature",
      "geometry": {
        "type": "Point",
        "coordinates": [
          139.6084943,
          35.59600556
        ]
      },
      "properties": {
        "台帳番号": 71,
        "設置場所": "社会復帰訓練所",
        "設置位置": "玄関横事務室入口",
        "住所": "高津区末長1-3-8",
        "24時間利用可能": "365日24時間使用可ではない",
        "利用開始時間": "8時30分",
        "利用終了時間": "17時00分"
      }
    },
    {
      "type": "Feature",
      "geometry": {
        "type": "Point",
        "coordinates": [
          139.4893463,
          35.60060631
        ]
      },
      "properties": {
        "台帳番号": 72,
        "設置場所": "柿生学園",
        "設置位置": "事務室",
        "住所": "麻生区五力田2-20-10",
        "24時間利用可能": "365日24時間使用可",
        "利用開始時間": "-",
        "利用終了時間": "-"
      }
    },
    {
      "type": "Feature",
      "geometry": {
        "type": "Point",
        "coordinates": [
          139.6927587,
          35.52611653
        ]
      },
      "properties": {
        "台帳番号": 73,
        "設置場所": "南部リハビリテーションセンター",
        "設置位置": "3階事務所",
        "住所": "川崎区日進町5-1",
        "24時間利用可能": "365日24時間使用可ではない",
        "利用開始時間": "8時30分",
        "利用終了時間": "17時30分"
      }
    },
    {
      "type": "Feature",
      "geometry": {
        "type": "Point",
        "coordinates": [
          139.51577,
          35.60285
        ]
      },
      "properties": {
        "台帳番号": 74,
        "設置場所": "北部リハビリテーションセンター",
        "設置位置": "2階北部地域生活支援センター事務室",
        "住所": "麻生区百合丘2-8-2",
        "24時間利用可能": "365日24時間使用可ではない",
        "利用開始時間": "8時30分",
        "利用終了時間": "20時00分"
      }
    },
    {
      "type": "Feature",
      "geometry": {
        "type": "Point",
        "coordinates": [
          139.6361,
          35.56385339
        ]
      },
      "properties": {
        "台帳番号": 75,
        "設置場所": "井田重度障害者等生活施設　桜の風",
        "設置位置": "警備員室",
        "住所": "中原区井田3丁目16番1号",
        "24時間利用可能": "365日24時間使用可",
        "利用開始時間": "-",
        "利用終了時間": "-"
      }
    },
    {
      "type": "Feature",
      "geometry": {
        "type": "Point",
        "coordinates": [
          139.7109152,
          35.52618117
        ]
      },
      "properties": {
        "台帳番号": 76,
        "設置場所": "南部身体障害者福祉会館",
        "設置位置": "1階事務室",
        "住所": "川崎区大島1-8-6",
        "24時間利用可能": "365日24時間使用可ではない",
        "利用開始時間": "8時30分",
        "利用終了時間": "21時00分"
      }
    },
    {
      "type": "Feature",
      "geometry": {
        "type": "Point",
        "coordinates": [
          139.6140372,
          35.6010985
        ]
      },
      "properties": {
        "台帳番号": 77,
        "設置場所": "北部身体障害者福祉会館",
        "設置位置": "1階事務室",
        "住所": "高津区溝口1-18-16",
        "24時間利用可能": "365日24時間使用可ではない",
        "利用開始時間": "8時30分",
        "利用終了時間": "21時00分"
      }
    },
    {
      "type": "Feature",
      "geometry": {
        "type": "Point",
        "coordinates": [
          139.6529111,
          35.58153489
        ]
      },
      "properties": {
        "台帳番号": 78,
        "設置場所": "中部身体障害者福祉会館",
        "設置位置": "1階事務室",
        "住所": "中原区小杉御殿町2-114-1",
        "24時間利用可能": "365日24時間使用可ではない",
        "利用開始時間": "8時30分",
        "利用終了時間": "21時"
      }
    },
    {
      "type": "Feature",
      "geometry": {
        "type": "Point",
        "coordinates": [
          139.7333671,
          35.53247336
        ]
      },
      "properties": {
        "台帳番号": 79,
        "設置場所": "大師老人いこいの家",
        "設置位置": "受付",
        "住所": "川崎区大師公園1-4",
        "24時間利用可能": "365日24時間使用可ではない",
        "利用開始時間": "午前９時",
        "利用終了時間": "午後４時"
      }
    },
    {
      "type": "Feature",
      "geometry": {
        "type": "Point",
        "coordinates": [
          139.7018571,
          35.514352
        ]
      },
      "properties": {
        "台帳番号": 80,
        "設置場所": "小田老人いこいの家",
        "設置位置": "受付",
        "住所": "川崎区小田2-16-9",
        "24時間利用可能": "365日24時間使用可ではない",
        "利用開始時間": "午前９時",
        "利用終了時間": "午後４時"
      }
    },
    {
      "type": "Feature",
      "geometry": {
        "type": "Point",
        "coordinates": [
          139.7217175,
          35.52507508
        ]
      },
      "properties": {
        "台帳番号": 81,
        "設置場所": "藤崎老人いこいの家",
        "設置位置": "受付",
        "住所": "川崎区藤崎4-17-6",
        "24時間利用可能": "365日24時間使用可ではない",
        "利用開始時間": "午前９時",
        "利用終了時間": "午後４時"
      }
    },
    {
      "type": "Feature",
      "geometry": {
        "type": "Point",
        "coordinates": [
          139.7116498,
          35.51568714
        ]
      },
      "properties": {
        "台帳番号": 82,
        "設置場所": "田島老人いこいの家",
        "設置位置": "受付",
        "住所": "川崎区田島町20-23",
        "24時間利用可能": "365日24時間使用可ではない",
        "利用開始時間": "午前９時",
        "利用終了時間": "午後４時"
      }
    },
    {
      "type": "Feature",
      "geometry": {
        "type": "Point",
        "coordinates": [
          139.7114757,
          35.52612397
        ]
      },
      "properties": {
        "台帳番号": 83,
        "設置場所": "大島老人いこいの家",
        "設置位置": "受付",
        "住所": "川崎区大島1-9-6",
        "24時間利用可能": "365日24時間使用可ではない",
        "利用開始時間": "午前９時",
        "利用終了時間": "午後４時"
      }
    },
    {
      "type": "Feature",
      "geometry": {
        "type": "Point",
        "coordinates": [
          139.7228887,
          35.52149731
        ]
      },
      "properties": {
        "台帳番号": 84,
        "設置場所": "桜本老人いこいの家",
        "設置位置": "受付",
        "住所": "川崎区桜本2-5-2",
        "24時間利用可能": "365日24時間使用可ではない",
        "利用開始時間": "午前９時",
        "利用終了時間": "午後４時"
      }
    },
    {
      "type": "Feature",
      "geometry": {
        "type": "Point",
        "coordinates": [
          139.6976734,
          35.51055397
        ]
      },
      "properties": {
        "台帳番号": 85,
        "設置場所": "京町老人いこいの家",
        "設置位置": "受付",
        "住所": "川崎区京町3-12-2",
        "24時間利用可能": "365日24時間使用可ではない",
        "利用開始時間": "午前９時",
        "利用終了時間": "午後４時"
      }
    },
    {
      "type": "Feature",
      "geometry": {
        "type": "Point",
        "coordinates": [
          139.7052221,
          35.51706375
        ]
      },
      "properties": {
        "台帳番号": 86,
        "設置場所": "渡田老人いこいの家",
        "設置位置": "受付",
        "住所": "川崎区渡田4-12-20",
        "24時間利用可能": "365日24時間使用可ではない",
        "利用開始時間": "午前９時",
        "利用終了時間": "午後４時"
      }
    },
    {
      "type": "Feature",
      "geometry": {
        "type": "Point",
        "coordinates": [
          139.7458494,
          35.53872297
        ]
      },
      "properties": {
        "台帳番号": 87,
        "設置場所": "殿町老人いこいの家",
        "設置位置": "受付",
        "住所": "川崎区殿町1-20-15",
        "24時間利用可能": "365日24時間使用可ではない",
        "利用開始時間": "午前９時",
        "利用終了時間": "午後４時"
      }
    },
    {
      "type": "Feature",
      "geometry": {
        "type": "Point",
        "coordinates": [
          139.6899198,
          35.54262556
        ]
      },
      "properties": {
        "台帳番号": 88,
        "設置場所": "御幸老人いこいの家",
        "設置位置": "受付",
        "住所": "幸区紺屋町33-1",
        "24時間利用可能": "365日24時間使用可ではない",
        "利用開始時間": "午前９時",
        "利用終了時間": "午後４時"
      }
    },
    {
      "type": "Feature",
      "geometry": {
        "type": "Point",
        "coordinates": [
          139.6691671,
          35.5471345
        ]
      },
      "properties": {
        "台帳番号": 89,
        "設置場所": "日吉老人いこいの家",
        "設置位置": "受付",
        "住所": "幸区北加瀬1-39-5",
        "24時間利用可能": "365日24時間使用可ではない",
        "利用開始時間": "午前９時",
        "利用終了時間": "午後４時"
      }
    },
    {
      "type": "Feature",
      "geometry": {
        "type": "Point",
        "coordinates": [
          139.6906805,
          35.53518142
        ]
      },
      "properties": {
        "台帳番号": 90,
        "設置場所": "南河原老人いこいの家",
        "設置位置": "受付",
        "住所": "幸区南幸町1-11",
        "24時間利用可能": "365日24時間使用可ではない",
        "利用開始時間": "午前９時",
        "利用終了時間": "午後４時"
      }
    },
    {
      "type": "Feature",
      "geometry": {
        "type": "Point",
        "coordinates": [
          139.6857622,
          35.54808269
        ]
      },
      "properties": {
        "台帳番号": 91,
        "設置場所": "下平間老人いこいの家",
        "設置位置": "受付",
        "住所": "幸区下平間357-6",
        "24時間利用可能": "365日24時間使用可ではない",
        "利用開始時間": "午前９時",
        "利用終了時間": "午後４時"
      }
    },
    {
      "type": "Feature",
      "geometry": {
        "type": "Point",
        "coordinates": [
          139.6838252,
          35.55130561
        ]
      },
      "properties": {
        "台帳番号": 92,
        "設置場所": "古市場老人いこいの家",
        "設置位置": "受付",
        "住所": "幸区古市場1781-1",
        "24時間利用可能": "365日24時間使用可ではない",
        "利用開始時間": "午前９時",
        "利用終了時間": "午後４時"
      }
    },
    {
      "type": "Feature",
      "geometry": {
        "type": "Point",
        "coordinates": [
          139.6639717,
          35.53767694
        ]
      },
      "properties": {
        "台帳番号": 93,
        "設置場所": "小倉老人いこいの家",
        "設置位置": "受付",
        "住所": "幸区小倉5-32-5",
        "24時間利用可能": "365日24時間使用可ではない",
        "利用開始時間": "午前９時",
        "利用終了時間": "午後４時"
      }
    },
    {
      "type": "Feature",
      "geometry": {
        "type": "Point",
        "coordinates": [
          139.6483138,
          35.58123344
        ]
      },
      "properties": {
        "台帳番号": 94,
        "設置場所": "ごうじ老人いこいの家",
        "設置位置": "受付",
        "住所": "中原区上小田中7-6-18",
        "24時間利用可能": "365日24時間使用可ではない",
        "利用開始時間": "午前９時",
        "利用終了時間": "午後４時"
      }
    },
    {
      "type": "Feature",
      "geometry": {
        "type": "Point",
        "coordinates": [
          139.6490534,
          35.58501616
        ]
      },
      "properties": {
        "台帳番号": 95,
        "設置場所": "等々力老人いこいの家",
        "設置位置": "受付",
        "住所": "中原区等々力1-1",
        "24時間利用可能": "365日24時間使用可ではない",
        "利用開始時間": "午前９時",
        "利用終了時間": "午後４時"
      }
    },
    {
      "type": "Feature",
      "geometry": {
        "type": "Point",
        "coordinates": [
          139.6683,
          35.57048
        ]
      },
      "properties": {
        "台帳番号": 96,
        "設置場所": "中丸子老人いこいの家",
        "設置位置": "受付",
        "住所": "中原区中丸子382-8",
        "24時間利用可能": "365日24時間使用可ではない",
        "利用開始時間": "午前９時",
        "利用終了時間": "午後４時"
      }
    },
    {
      "type": "Feature",
      "geometry": {
        "type": "Point",
        "coordinates": [
          139.6342329,
          35.58024458
        ]
      },
      "properties": {
        "台帳番号": 97,
        "設置場所": "新城老人いこいの家",
        "設置位置": "受付",
        "住所": "中原区下新城1-2-4",
        "24時間利用可能": "365日24時間使用可ではない",
        "利用開始時間": "午前９時",
        "利用終了時間": "午後４時"
      }
    },
    {
      "type": "Feature",
      "geometry": {
        "type": "Point",
        "coordinates": [
          139.6606721,
          35.561703
        ]
      },
      "properties": {
        "台帳番号": 98,
        "設置場所": "西加瀬老人いこいの家",
        "設置位置": "受付",
        "住所": "中原区西加瀬10-5",
        "24時間利用可能": "365日24時間使用可ではない",
        "利用開始時間": "午前９時",
        "利用終了時間": "午後４時"
      }
    },
    {
      "type": "Feature",
      "geometry": {
        "type": "Point",
        "coordinates": [
          139.6473526,
          35.56872278
        ]
      },
      "properties": {
        "台帳番号": 99,
        "設置場所": "井田老人いこいの家",
        "設置位置": "受付",
        "住所": "中原区井田三舞町14-16",
        "24時間利用可能": "365日24時間使用可ではない",
        "利用開始時間": "午前９時",
        "利用終了時間": "午後４時"
      }
    },
    {
      "type": "Feature",
      "geometry": {
        "type": "Point",
        "coordinates": [
          139.6632533,
          35.58203669
        ]
      },
      "properties": {
        "台帳番号": 100,
        "設置場所": "丸子多摩川老人いこいの家",
        "設置位置": "受付",
        "住所": "中原区丸子通1-639-3",
        "24時間利用可能": "365日24時間使用可ではない",
        "利用開始時間": "午前９時",
        "利用終了時間": "午後４時"
      }
    },
    {
      "type": "Feature",
      "geometry": {
        "type": "Point",
        "coordinates": [
          139.6178862,
          35.59874619
        ]
      },
      "properties": {
        "台帳番号": 101,
        "設置場所": "高津老人いこいの家",
        "設置位置": "受付",
        "住所": "高津区久本3-6-22",
        "24時間利用可能": "365日24時間使用可ではない",
        "利用開始時間": "午前９時",
        "利用終了時間": "午後４時"
      }
    },
    {
      "type": "Feature",
      "geometry": {
        "type": "Point",
        "coordinates": [
          139.6001349,
          35.59619928
        ]
      },
      "properties": {
        "台帳番号": 102,
        "設置場所": "上作延老人いこいの家",
        "設置位置": "受付",
        "住所": "高津区上作延5-26-55",
        "24時間利用可能": "365日24時間使用可ではない",
        "利用開始時間": "午前９時",
        "利用終了時間": "午後４時"
      }
    },
    {
      "type": "Feature",
      "geometry": {
        "type": "Point",
        "coordinates": [
          139.6277141,
          35.56985017
        ]
      },
      "properties": {
        "台帳番号": 103,
        "設置場所": "子母口老人いこいの家",
        "設置位置": "受付",
        "住所": "高津区子母口983",
        "24時間利用可能": "365日24時間使用可ではない",
        "利用開始時間": "午前９時",
        "利用終了時間": "午後４時"
      }
    },
    {
      "type": "Feature",
      "geometry": {
        "type": "Point",
        "coordinates": [
          139.6115884,
          35.5888125
        ]
      },
      "properties": {
        "台帳番号": 104,
        "設置場所": "末長老人いこいの家",
        "設置位置": "受付",
        "住所": "高津区末長2-27-2",
        "24時間利用可能": "365日24時間使用可ではない",
        "利用開始時間": "午前９時",
        "利用終了時間": "午後４時"
      }
    },
    {
      "type": "Feature",
      "geometry": {
        "type": "Point",
        "coordinates": [
          139.6063852,
          35.58286678
        ]
      },
      "properties": {
        "台帳番号": 105,
        "設置場所": "梶ケ谷老人いこいの家",
        "設置位置": "受付",
        "住所": "高津区梶ケ谷5-8-27",
        "24時間利用可能": "365日24時間使用可ではない",
        "利用開始時間": "午前９時",
        "利用終了時間": "午後４時"
      }
    },
    {
      "type": "Feature",
      "geometry": {
        "type": "Point",
        "coordinates": [
          139.6366897,
          35.59744308
        ]
      },
      "properties": {
        "台帳番号": 106,
        "設置場所": "東高津老人いこいの家",
        "設置位置": "受付",
        "住所": "高津区下野毛1-3-2",
        "24時間利用可能": "365日24時間使用可ではない",
        "利用開始時間": "午前９時",
        "利用終了時間": "午後４時"
      }
    },
    {
      "type": "Feature",
      "geometry": {
        "type": "Point",
        "coordinates": [
          139.6056771,
          35.60811458
        ]
      },
      "properties": {
        "台帳番号": 107,
        "設置場所": "くじ老人いこいの家",
        "設置位置": "受付",
        "住所": "高津区久地3-16-1",
        "24時間利用可能": "365日24時間使用可ではない",
        "利用開始時間": "午前９時",
        "利用終了時間": "午後４時"
      }
    },
    {
      "type": "Feature",
      "geometry": {
        "type": "Point",
        "coordinates": [
          139.5748751,
          35.60187842
        ]
      },
      "properties": {
        "台帳番号": 108,
        "設置場所": "平老人いこいの家",
        "設置位置": "1階下駄箱上",
        "住所": "宮前区平2-13-1",
        "24時間利用可能": "365日24時間使用可ではない",
        "利用開始時間": "午前９時",
        "利用終了時間": "午後４時"
      }
    },
    {
      "type": "Feature",
      "geometry": {
        "type": "Point",
        "coordinates": [
          139.5829341,
          35.57683011
        ]
      },
      "properties": {
        "台帳番号": 109,
        "設置場所": "有馬老人いこいの家",
        "設置位置": "受付",
        "住所": "宮前区有馬4-5-2",
        "24時間利用可能": "365日24時間使用可ではない",
        "利用開始時間": "午前９時",
        "利用終了時間": "午後４時"
      }
    },
    {
      "type": "Feature",
      "geometry": {
        "type": "Point",
        "coordinates": [
          139.6024916,
          35.57352803
        ]
      },
      "properties": {
        "台帳番号": 110,
        "設置場所": "野川老人いこいの家",
        "設置位置": "ロビー",
        "住所": "宮前区野川台1-25-23",
        "24時間利用可能": "365日24時間使用可ではない",
        "利用開始時間": "午前９時",
        "利用終了時間": "午後４時"
      }
    },
    {
      "type": "Feature",
      "geometry": {
        "type": "Point",
        "coordinates": [
          139.5679694,
          35.59779219
        ]
      },
      "properties": {
        "台帳番号": 111,
        "設置場所": "白幡台老人いこいの家",
        "設置位置": "受付",
        "住所": "宮前区白幡台1-13-1",
        "24時間利用可能": "365日24時間使用可ではない",
        "利用開始時間": "午前９時",
        "利用終了時間": "午後４時"
      }
    },
    {
      "type": "Feature",
      "geometry": {
        "type": "Point",
        "coordinates": [
          139.5380296,
          35.59677119
        ]
      },
      "properties": {
        "台帳番号": 112,
        "設置場所": "鷲ケ峰老人いこいの家",
        "設置位置": "受付",
        "住所": "宮前区菅生ケ丘32-10",
        "24時間利用可能": "365日24時間使用可ではない",
        "利用開始時間": "午前９時",
        "利用終了時間": "午後４時"
      }
    },
    {
      "type": "Feature",
      "geometry": {
        "type": "Point",
        "coordinates": [
          139.5634799,
          35.62375756
        ]
      },
      "properties": {
        "台帳番号": 113,
        "設置場所": "登戸老人いこいの家",
        "設置位置": "受付",
        "住所": "多摩区登戸新町237",
        "24時間利用可能": "365日24時間使用可ではない",
        "利用開始時間": "午前９時",
        "利用終了時間": "午後４時"
      }
    },
    {
      "type": "Feature",
      "geometry": {
        "type": "Point",
        "coordinates": [
          139.5314093,
          35.63109806
        ]
      },
      "properties": {
        "台帳番号": 114,
        "設置場所": "菅老人いこいの家",
        "設置位置": "受付",
        "住所": "多摩区菅北浦3-11-1",
        "24時間利用可能": "365日24時間使用可ではない",
        "利用開始時間": "午前９時",
        "利用終了時間": "午後４時"
      }
    },
    {
      "type": "Feature",
      "geometry": {
        "type": "Point",
        "coordinates": [
          139.5355096,
          35.61300706
        ]
      },
      "properties": {
        "台帳番号": 115,
        "設置場所": "錦ケ丘老人いこいの家",
        "設置位置": "受付",
        "住所": "多摩区栗谷3-28-2",
        "24時間利用可能": "365日24時間使用可ではない",
        "利用開始時間": "午前９時",
        "利用終了時間": "午後４時"
      }
    },
    {
      "type": "Feature",
      "geometry": {
        "type": "Point",
        "coordinates": [
          139.5747475,
          35.61153817
        ]
      },
      "properties": {
        "台帳番号": 116,
        "設置場所": "長尾老人いこいの家",
        "設置位置": "受付",
        "住所": "多摩区長尾1-12-7",
        "24時間利用可能": "365日24時間使用可ではない",
        "利用開始時間": "午前９時",
        "利用終了時間": "午後４時"
      }
    },
    {
      "type": "Feature",
      "geometry": {
        "type": "Point",
        "coordinates": [
          139.5609055,
          35.61406031
        ]
      },
      "properties": {
        "台帳番号": 117,
        "設置場所": "枡形老人いこいの家",
        "設置位置": "受付",
        "住所": "多摩区枡形6-3-1",
        "24時間利用可能": "365日24時間使用可ではない",
        "利用開始時間": "午前９時",
        "利用終了時間": "午後４時"
      }
    },
    {
      "type": "Feature",
      "geometry": {
        "type": "Point",
        "coordinates": [
          139.5517904,
          35.63052014
        ]
      },
      "properties": {
        "台帳番号": 118,
        "設置場所": "中野島老人いこいの家",
        "設置位置": "受付",
        "住所": "多摩区中野島6-26-7",
        "24時間利用可能": "365日24時間使用可ではない",
        "利用開始時間": "午前９時",
        "利用終了時間": "午後４時"
      }
    },
    {
      "type": "Feature",
      "geometry": {
        "type": "Point",
        "coordinates": [
          139.5332913,
          35.62287708
        ]
      },
      "properties": {
        "台帳番号": 119,
        "設置場所": "南菅老人いこいの家",
        "設置位置": "受付",
        "住所": "多摩区菅馬場3-26-1",
        "24時間利用可能": "365日24時間使用可ではない",
        "利用開始時間": "午前９時",
        "利用終了時間": "午後４時"
      }
    },
    {
      "type": "Feature",
      "geometry": {
        "type": "Point",
        "coordinates": [
          139.5126281,
          35.58156189
        ]
      },
      "properties": {
        "台帳番号": 120,
        "設置場所": "王禅寺老人いこいの家",
        "設置位置": "受付",
        "住所": "麻生区王禅寺東5-32-15",
        "24時間利用可能": "365日24時間使用可ではない",
        "利用開始時間": "午前９時",
        "利用終了時間": "午後４時"
      }
    },
    {
      "type": "Feature",
      "geometry": {
        "type": "Point",
        "coordinates": [
          139.4917303,
          35.59768364
        ]
      },
      "properties": {
        "台帳番号": 121,
        "設置場所": "片平老人いこいの家",
        "設置位置": "受付",
        "住所": "麻生区片平5-25-1",
        "24時間利用可能": "365日24時間使用可ではない",
        "利用開始時間": "午前９時",
        "利用終了時間": "午後４時"
      }
    },
    {
      "type": "Feature",
      "geometry": {
        "type": "Point",
        "coordinates": [
          139.5104763,
          35.6154255
        ]
      },
      "properties": {
        "台帳番号": 122,
        "設置場所": "千代ケ丘老人いこいの家",
        "設置位置": "受付",
        "住所": "麻生区千代ケ丘6-3-22",
        "24時間利用可能": "365日24時間使用可ではない",
        "利用開始時間": "午前９時",
        "利用終了時間": "午後４時"
      }
    },
    {
      "type": "Feature",
      "geometry": {
        "type": "Point",
        "coordinates": [
          139.5100411,
          35.59054794
        ]
      },
      "properties": {
        "台帳番号": 123,
        "設置場所": "白山老人いこいの家",
        "設置位置": "受付",
        "住所": "麻生区白山4-2-2",
        "24時間利用可能": "365日24時間使用可ではない",
        "利用開始時間": "午前９時",
        "利用終了時間": "午後４時"
      }
    },
    {
      "type": "Feature",
      "geometry": {
        "type": "Point",
        "coordinates": [
          139.5038416,
          35.59499828
        ]
      },
      "properties": {
        "台帳番号": 124,
        "設置場所": "麻生老人いこいの家",
        "設置位置": "受付",
        "住所": "麻生区上麻生4-32-2",
        "24時間利用可能": "365日24時間使用可ではない",
        "利用開始時間": "午前９時",
        "利用終了時間": "午後４時"
      }
    },
    {
      "type": "Feature",
      "geometry": {
        "type": "Point",
        "coordinates": [
          139.4834703,
          35.58113908
        ]
      },
      "properties": {
        "台帳番号": 125,
        "設置場所": "岡上老人いこいの家",
        "設置位置": "受付",
        "住所": "麻生区岡上3-13-1",
        "24時間利用可能": "365日24時間使用可ではない",
        "利用開始時間": "午前９時",
        "利用終了時間": "午後４時"
      }
    },
    {
      "type": "Feature",
      "geometry": {
        "type": "Point",
        "coordinates": [
          139.692172,
          35.52545711
        ]
      },
      "properties": {
        "台帳番号": 126,
        "設置場所": "かわさき老人福祉・地域交流センター",
        "設置位置": "受付",
        "住所": "川崎区堤根34-15",
        "24時間利用可能": "365日24時間使用可ではない",
        "利用開始時間": "午前９時",
        "利用終了時間": "午後９時"
      }
    },
    {
      "type": "Feature",
      "geometry": {
        "type": "Point",
        "coordinates": [
          139.6868828,
          35.54385842
        ]
      },
      "properties": {
        "台帳番号": 127,
        "設置場所": "さいわい健康福祉プラザ",
        "設置位置": "2階湯沸室前",
        "住所": "幸区戸手本町1-11-5",
        "24時間利用可能": "365日24時間使用可ではない",
        "利用開始時間": "午前９時",
        "利用終了時間": "午後４時"
      }
    },
    {
      "type": "Feature",
      "geometry": {
        "type": "Point",
        "coordinates": [
          139.6369685,
          35.56340939
        ]
      },
      "properties": {
        "台帳番号": 128,
        "設置場所": "中原老人福祉センター",
        "設置位置": "受付",
        "住所": "中原区井田3-16-2",
        "24時間利用可能": "365日24時間使用可ではない",
        "利用開始時間": "午前９時",
        "利用終了時間": "午後４時"
      }
    },
    {
      "type": "Feature",
      "geometry": {
        "type": "Point",
        "coordinates": [
          139.6182246,
          35.58848861
        ]
      },
      "properties": {
        "台帳番号": 129,
        "設置場所": "高津老人福祉・地域交流センター",
        "設置位置": "1階事務室内",
        "住所": "高津区末長3-24-4",
        "24時間利用可能": "365日24時間使用可ではない",
        "利用開始時間": "午前９時",
        "利用終了時間": "午後９時"
      }
    },
    {
      "type": "Feature",
      "geometry": {
        "type": "Point",
        "coordinates": [
          139.5913308,
          35.58656178
        ]
      },
      "properties": {
        "台帳番号": 130,
        "設置場所": "宮前老人福祉センター",
        "設置位置": "1階事務室内",
        "住所": "宮前区宮崎2-12-29",
        "24時間利用可能": "365日24時間使用可ではない",
        "利用開始時間": "午前９時",
        "利用終了時間": "午後４時"
      }
    },
    {
      "type": "Feature",
      "geometry": {
        "type": "Point",
        "coordinates": [
          139.5612167,
          35.63018
        ]
      },
      "properties": {
        "台帳番号": 131,
        "設置場所": "多摩老人福祉センター",
        "設置位置": "1階事務所内",
        "住所": "多摩区中野島5-2-30",
        "24時間利用可能": "365日24時間使用可ではない",
        "利用開始時間": "午前９時",
        "利用終了時間": "午後４時"
      }
    },
    {
      "type": "Feature",
      "geometry": {
        "type": "Point",
        "coordinates": [
          139.4990053,
          35.61086689
        ]
      },
      "properties": {
        "台帳番号": 132,
        "設置場所": "麻生老人福祉センター",
        "設置位置": "1階事務室内",
        "住所": "麻生区金程2-8-3",
        "24時間利用可能": "365日24時間使用可ではない",
        "利用開始時間": "午前９時",
        "利用終了時間": "午後４時"
      }
    },
    {
      "type": "Feature",
      "geometry": {
        "type": "Point",
        "coordinates": [
          139.5154715,
          35.60283522
        ]
      },
      "properties": {
        "台帳番号": 133,
        "設置場所": "百合丘老人いこいの家",
        "設置位置": "受付",
        "住所": "麻生区百合丘2-8-2",
        "24時間利用可能": "365日24時間使用可ではない",
        "利用開始時間": "午前９時",
        "利用終了時間": "午後４時"
      }
    },
    {
      "type": "Feature",
      "geometry": {
        "type": "Point",
        "coordinates": [
          139.63602,
          35.56343
        ]
      },
      "properties": {
        "台帳番号": 134,
        "設置場所": "中部リハビリテーションセンター体育館",
        "設置位置": "受付カウンター上",
        "住所": "中原区井田3-16-1",
        "24時間利用可能": "365日24時間使用可ではない",
        "利用開始時間": "9時00分",
        "利用終了時間": "16時00分　(21時00分)"
      }
    },
    {
      "type": "Feature",
      "geometry": {
        "type": "Point",
        "coordinates": [
          139.63593,
          35.56263
        ]
      },
      "properties": {
        "台帳番号": 135,
        "設置場所": "中部地域支援室",
        "設置位置": "2階事務室受付",
        "住所": "中原区井田3-16-1",
        "24時間利用可能": "365日24時間使用可ではない",
        "利用開始時間": "8時30分",
        "利用終了時間": "17時15分"
      }
    },
    {
      "type": "Feature",
      "geometry": {
        "type": "Point",
        "coordinates": [
          139.714883,
          35.52668525
        ]
      },
      "properties": {
        "台帳番号": 136,
        "設置場所": "南部地域療育センター",
        "設置位置": "1階外来受付カウンター",
        "住所": "川崎区中島3-3-1",
        "24時間利用可能": "365日24時間使用可ではない",
        "利用開始時間": "8時30分",
        "利用終了時間": "17時00分"
      }
    },
    {
      "type": "Feature",
      "geometry": {
        "type": "Point",
        "coordinates": [
          139.6357038,
          35.56406381
        ]
      },
      "properties": {
        "台帳番号": 137,
        "設置場所": "中央療育センター（通所棟）",
        "設置位置": "1階受付カウンター",
        "住所": "中原区井田3-16-1",
        "24時間利用可能": "365日24時間使用可ではない",
        "利用開始時間": "8時30分",
        "利用終了時間": "17時00分"
      }
    },
    {
      "type": "Feature",
      "geometry": {
        "type": "Point",
        "coordinates": [
          139.6354521,
          35.56406586
        ]
      },
      "properties": {
        "台帳番号": 138,
        "設置場所": "中央療育センター（入所棟）",
        "設置位置": "1階玄関ホール",
        "住所": "中原区井田3-16-1",
        "24時間利用可能": "365日24時間使用可",
        "利用開始時間": "-",
        "利用終了時間": "-"
      }
    },
    {
      "type": "Feature",
      "geometry": {
        "type": "Point",
        "coordinates": [
          139.4922358,
          35.59745369
        ]
      },
      "properties": {
        "台帳番号": 139,
        "設置場所": "北部地域療育センター",
        "設置位置": "1階職員室受付カウンター",
        "住所": "麻生区片平5-26-1",
        "24時間利用可能": "365日24時間使用可ではない",
        "利用開始時間": "8時30分",
        "利用終了時間": "17時00分"
      }
    },
    {
      "type": "Feature",
      "geometry": {
        "type": "Point",
        "coordinates": [
          139.692953,
          35.526089
        ]
      },
      "properties": {
        "台帳番号": 140,
        "設置場所": "総合リハビリテーション推進センター総務・判定課",
        "設置位置": "2階総合リハビリテーション推進センター事務室カウンター",
        "住所": "川崎区日進町5-1 川崎市複合福祉センター　ふくふく２階",
        "24時間利用可能": "365日24時間使用可ではない",
        "利用開始時間": "8時30分",
        "利用終了時間": "17時15分"
      }
    },
    {
      "type": "Feature",
      "geometry": {
        "type": "Point",
        "coordinates": [
          139.6921731,
          35.52538631
        ]
      },
      "properties": {
        "台帳番号": 141,
        "設置場所": "視覚障害者情報文化センター",
        "設置位置": "3階事務室",
        "住所": "川崎区堤根34-15",
        "24時間利用可能": "365日24時間使用可ではない",
        "利用開始時間": "9時",
        "利用終了時間": "17時"
      }
    },
    {
      "type": "Feature",
      "geometry": {
        "type": "Point",
        "coordinates": [
          139.6473417,
          35.56877225
        ]
      },
      "properties": {
        "台帳番号": 142,
        "設置場所": "聴覚障害者情報文化センター",
        "設置位置": "2階事務室の近くの廊下",
        "住所": "川崎市中原区井田三舞町14-16",
        "24時間利用可能": "365日24時間使用可ではない",
        "利用開始時間": "9時",
        "利用終了時間": "21時"
      }
    },
    {
      "type": "Feature",
      "geometry": {
        "type": "Point",
        "coordinates": [
          139.7073506,
          35.52942675
        ]
      },
      "properties": {
        "台帳番号": 143,
        "設置場所": "川崎休日急患診療所",
        "設置位置": "2階診療所スペース",
        "住所": "川崎区富士見1-1-1",
        "24時間利用可能": "365日24時間使用可ではない",
        "利用開始時間": "9時00分",
        "利用終了時間": "16時00分"
      }
    },
    {
      "type": "Feature",
      "geometry": {
        "type": "Point",
        "coordinates": [
          139.692667,
          35.54403256
        ]
      },
      "properties": {
        "台帳番号": 144,
        "設置場所": "幸休日急患診療所",
        "設置位置": "1階診療所スペース",
        "住所": "幸区戸手2-12-12",
        "24時間利用可能": "365日24時間使用可ではない",
        "利用開始時間": "9時00分",
        "利用終了時間": "16時00分"
      }
    },
    {
      "type": "Feature",
      "geometry": {
        "type": "Point",
        "coordinates": [
          139.6547914,
          35.57590161
        ]
      },
      "properties": {
        "台帳番号": 145,
        "設置場所": "中原休日急患診療所",
        "設置位置": "2階診療所スペース",
        "住所": "中原区小杉町3-26-7 医師会館内",
        "24時間利用可能": "365日24時間使用可ではない",
        "利用開始時間": "9時00分",
        "利用終了時間": "16時00分"
      }
    },
    {
      "type": "Feature",
      "geometry": {
        "type": "Point",
        "coordinates": [
          139.6141511,
          35.60763225
        ]
      },
      "properties": {
        "台帳番号": 146,
        "設置場所": "高津休日急患診療所",
        "設置位置": "1階診療所スペース",
        "住所": "高津区溝口5-15-5",
        "24時間利用可能": "365日24時間使用可ではない",
        "利用開始時間": "9時00分",
        "利用終了時間": "16時00分"
      }
    },
    {
      "type": "Feature",
      "geometry": {
        "type": "Point",
        "coordinates": [
          139.59477,
          35.57701744
        ]
      },
      "properties": {
        "台帳番号": 147,
        "設置場所": "宮前休日急患診療所",
        "設置位置": "1階診療所スペース",
        "住所": "宮前区東有馬2-13-3",
        "24時間利用可能": "365日24時間使用可ではない",
        "利用開始時間": "9時00分",
        "利用終了時間": "16時00分"
      }
    },
    {
      "type": "Feature",
      "geometry": {
        "type": "Point",
        "coordinates": [
          139.5621855,
          35.61950075
        ]
      },
      "properties": {
        "台帳番号": 148,
        "設置場所": "多摩休日夜間急患診療所",
        "設置位置": "1階診療所スペース",
        "住所": "多摩区登戸1775-1 多摩区総合庁舎内",
        "24時間利用可能": "365日24時間使用可ではない",
        "利用開始時間": "9時00分",
        "利用終了時間": "16時00分"
      }
    },
    {
      "type": "Feature",
      "geometry": {
        "type": "Point",
        "coordinates": [
          139.5056041,
          35.60482803
        ]
      },
      "properties": {
        "台帳番号": 149,
        "設置場所": "麻生休日急患診療所",
        "設置位置": "3階診療所スペース",
        "住所": "麻生区万福寺1-5-3",
        "24時間利用可能": "365日24時間使用可ではない",
        "利用開始時間": "9時00分",
        "利用終了時間": "16時00分"
      }
    },
    {
      "type": "Feature",
      "geometry": {
        "type": "Point",
        "coordinates": [
          139.6959801,
          35.52092386
        ]
      },
      "properties": {
        "台帳番号": 150,
        "設置場所": "かわさき健康づくりセンター",
        "設置位置": "1階トレーニングルーム前",
        "住所": "川崎区渡田新町3-2-1",
        "24時間利用可能": "365日24時間使用可ではない",
        "利用開始時間": "9時00分",
        "利用終了時間": "20時30分"
      }
    },
    {
      "type": "Feature",
      "geometry": {
        "type": "Point",
        "coordinates": [
          139.6959801,
          35.52092386
        ]
      },
      "properties": {
        "台帳番号": 151,
        "設置場所": "かわさき健康づくりセンター",
        "設置位置": "2階エレベーターホール",
        "住所": "川崎区渡田新町3-2-1",
        "24時間利用可能": "365日24時間使用可ではない",
        "利用開始時間": "9時00分",
        "利用終了時間": "20時30分"
      }
    },
    {
      "type": "Feature",
      "geometry": {
        "type": "Point",
        "coordinates": [
          139.7392812,
          35.51691236
        ]
      },
      "properties": {
        "台帳番号": 152,
        "設置場所": "かわさき南部斎苑",
        "設置位置": "事務室",
        "住所": "川崎区夜光3-2-7",
        "24時間利用可能": "365日24時間使用可ではない",
        "利用開始時間": "0時00分",
        "利用終了時間": "0時00分"
      }
    },
    {
      "type": "Feature",
      "geometry": {
        "type": "Point",
        "coordinates": [
          139.6001347,
          35.607295
        ]
      },
      "properties": {
        "台帳番号": 153,
        "設置場所": "かわさき北部斎苑",
        "設置位置": "事務室",
        "住所": "高津区下作延6-18-1",
        "24時間利用可能": "365日24時間使用可ではない",
        "利用開始時間": "0時00分",
        "利用終了時間": "0時00分"
      }
    },
    {
      "type": "Feature",
      "geometry": {
        "type": "Point",
        "coordinates": [
          139.66986,
          35.53593
        ]
      },
      "properties": {
        "台帳番号": 154,
        "設置場所": "川崎市立看護大学",
        "設置位置": "1階守衛室",
        "住所": "幸区小倉4-30-1",
        "24時間利用可能": "365日24時間使用可ではない",
        "利用開始時間": "6時30分",
        "利用終了時間": "22時30分"
      }
    },
    {
      "type": "Feature",
      "geometry": {
        "type": "Point",
        "coordinates": [
          139.6993934,
          35.53172777
        ]
      },
      "properties": {
        "台帳番号": 155,
        "設置場所": "川崎市立看護大学大学院",
        "設置位置": "事務室",
        "住所": "川崎区駅前本町11-2",
        "24時間利用可能": "365日24時間使用可ではない",
        "利用開始時間": "8時30分",
        "利用終了時間": "22時30分"
      }
    },
    {
      "type": "Feature",
      "geometry": {
        "type": "Point",
        "coordinates": [
          139.6741798,
          35.55618203
        ]
      },
      "properties": {
        "台帳番号": 156,
        "設置場所": "川崎市動物愛護センター",
        "設置位置": "1階事務室受付",
        "住所": "中原区上平間1700−8",
        "24時間利用可能": "365日24時間使用可ではない",
        "利用開始時間": "8時30分",
        "利用終了時間": "17時15分"
      }
    },
    {
      "type": "Feature",
      "geometry": {
        "type": "Point",
        "coordinates": [
          139.598717,
          35.58754333
        ]
      },
      "properties": {
        "台帳番号": 157,
        "設置場所": "青少年の家",
        "設置位置": "1階受付",
        "住所": "宮前区宮崎105-1",
        "24時間利用可能": "365日24時間使用可ではない",
        "利用開始時間": "9時00分",
        "利用終了時間": "21時00分"
      }
    },
    {
      "type": "Feature",
      "geometry": {
        "type": "Point",
        "coordinates": [
          139.4701962,
          35.61095208
        ]
      },
      "properties": {
        "台帳番号": 158,
        "設置場所": "黒川青少年野外活動センター",
        "設置位置": "1階受付窓口",
        "住所": "麻生区黒川313-9",
        "24時間利用可能": "365日24時間使用可ではない",
        "利用開始時間": "9時00分",
        "利用終了時間": "16時30分"
      }
    },
    {
      "type": "Feature",
      "geometry": {
        "type": "Point",
        "coordinates": [
          139.5972081,
          35.60532653
        ]
      },
      "properties": {
        "台帳番号": 159,
        "設置場所": "子ども夢パーク",
        "設置位置": "1階事務所",
        "住所": "高津区下作延5-30-1",
        "24時間利用可能": "365日24時間使用可ではない",
        "利用開始時間": "9時00分",
        "利用終了時間": "21時00分"
      }
    },
    {
      "type": "Feature",
      "geometry": {
        "type": "Point",
        "coordinates": [
          139.7147449,
          35.53088186
        ]
      },
      "properties": {
        "台帳番号": 160,
        "設置場所": "旭町こども文化センター",
        "設置位置": "1階事務室",
        "住所": "川崎区旭町2-1-5",
        "24時間利用可能": "365日24時間使用可ではない",
        "利用開始時間": "9時30分",
        "利用終了時間": "１８時・21時"
      }
    },
    {
      "type": "Feature",
      "geometry": {
        "type": "Point",
        "coordinates": [
          139.6921712,
          35.52542242
        ]
      },
      "properties": {
        "台帳番号": 161,
        "設置場所": "日進町こども文化センター",
        "設置位置": "3階事務室",
        "住所": "川崎区堤根34-15ふれあいプラザかわさき3階",
        "24時間利用可能": "365日24時間使用可ではない",
        "利用開始時間": "9時30分",
        "利用終了時間": "１８時・21時"
      }
    },
    {
      "type": "Feature",
      "geometry": {
        "type": "Point",
        "coordinates": [
          139.7084779,
          35.52259847
        ]
      },
      "properties": {
        "台帳番号": 162,
        "設置場所": "渡田こども文化センター",
        "設置位置": "事務室",
        "住所": "川崎区渡田1-15-5",
        "24時間利用可能": "365日24時間使用可ではない",
        "利用開始時間": "9時30分",
        "利用終了時間": "１８時・21時"
      }
    },
    {
      "type": "Feature",
      "geometry": {
        "type": "Point",
        "coordinates": [
          139.7334131,
          35.53247342
        ]
      },
      "properties": {
        "台帳番号": 163,
        "設置場所": "大師こども文化センター",
        "設置位置": "2階事務室",
        "住所": "川崎区大師公園1-4",
        "24時間利用可能": "365日24時間使用可ではない",
        "利用開始時間": "9時30分",
        "利用終了時間": "１８時・21時"
      }
    },
    {
      "type": "Feature",
      "geometry": {
        "type": "Point",
        "coordinates": [
          139.7216732,
          35.52507783
        ]
      },
      "properties": {
        "台帳番号": 164,
        "設置場所": "藤崎こども文化センター",
        "設置位置": "2階事務室",
        "住所": "川崎区藤崎4-17-6",
        "24時間利用可能": "365日24時間使用可ではない",
        "利用開始時間": "9時30分",
        "利用終了時間": "１８時・21時"
      }
    },
    {
      "type": "Feature",
      "geometry": {
        "type": "Point",
        "coordinates": [
          139.7461883,
          35.53848425
        ]
      },
      "properties": {
        "台帳番号": 165,
        "設置場所": "殿町こども文化センター",
        "設置位置": "事務室",
        "住所": "川崎区殿町1-18-13",
        "24時間利用可能": "365日24時間使用可ではない",
        "利用開始時間": "9時30分",
        "利用終了時間": "１８時・21時"
      }
    },
    {
      "type": "Feature",
      "geometry": {
        "type": "Point",
        "coordinates": [
          139.7116515,
          35.51572183
        ]
      },
      "properties": {
        "台帳番号": 166,
        "設置場所": "田島こども文化センター",
        "設置位置": "2階事務室",
        "住所": "川崎区田島町20-23",
        "24時間利用可能": "365日24時間使用可ではない",
        "利用開始時間": "9時30分",
        "利用終了時間": "１８時・21時"
      }
    },
    {
      "type": "Feature",
      "geometry": {
        "type": "Point",
        "coordinates": [
          139.7010542,
          35.50845231
        ]
      },
      "properties": {
        "台帳番号": 167,
        "設置場所": "浅田こども文化センター",
        "設置位置": "事務室",
        "住所": "川崎区浅田3-7-10",
        "24時間利用可能": "365日24時間使用可ではない",
        "利用開始時間": "9時30分",
        "利用終了時間": "１８時・21時"
      }
    },
    {
      "type": "Feature",
      "geometry": {
        "type": "Point",
        "coordinates": [
          139.7018571,
          35.514395
        ]
      },
      "properties": {
        "台帳番号": 168,
        "設置場所": "小田こども文化センター",
        "設置位置": "2階事務室",
        "住所": "川崎区小田2-16-9",
        "24時間利用可能": "365日24時間使用可ではない",
        "利用開始時間": "9時30分",
        "利用終了時間": "１８時・21時"
      }
    },
    {
      "type": "Feature",
      "geometry": {
        "type": "Point",
        "coordinates": [
          139.7210124,
          35.51898669
        ]
      },
      "properties": {
        "台帳番号": 169,
        "設置場所": "ふれあい館・桜本こども文化センター",
        "設置位置": "1階事務室",
        "住所": "川崎区桜本1-5-6",
        "24時間利用可能": "365日24時間使用可ではない",
        "利用開始時間": "9時30分",
        "利用終了時間": "１８時・21時"
      }
    },
    {
      "type": "Feature",
      "geometry": {
        "type": "Point",
        "coordinates": [
          139.6894711,
          35.53759903
        ]
      },
      "properties": {
        "台帳番号": 170,
        "設置場所": "南河原こども文化センター",
        "設置位置": "1階事務室",
        "住所": "幸区都町74-2",
        "24時間利用可能": "365日24時間使用可ではない",
        "利用開始時間": "9時30分",
        "利用終了時間": "１８時・21時"
      }
    },
    {
      "type": "Feature",
      "geometry": {
        "type": "Point",
        "coordinates": [
          139.6661108,
          35.53806106
        ]
      },
      "properties": {
        "台帳番号": 171,
        "設置場所": "小倉こども文化センター",
        "設置位置": "2階事務室",
        "住所": "幸区小倉5-17-59",
        "24時間利用可能": "365日24時間使用可ではない",
        "利用開始時間": "9時30分",
        "利用終了時間": "１８時・21時"
      }
    },
    {
      "type": "Feature",
      "geometry": {
        "type": "Point",
        "coordinates": [
          139.686789,
          35.54385831
        ]
      },
      "properties": {
        "台帳番号": 172,
        "設置場所": "幸こども文化センター",
        "設置位置": "2階事務室",
        "住所": "幸区戸手本町1-11-5",
        "24時間利用可能": "365日24時間使用可ではない",
        "利用開始時間": "9時30分",
        "利用終了時間": "１８時・21時"
      }
    },
    {
      "type": "Feature",
      "geometry": {
        "type": "Point",
        "coordinates": [
          139.6770757,
          35.55234317
        ]
      },
      "properties": {
        "台帳番号": 173,
        "設置場所": "下平間こども文化センター",
        "設置位置": "事務室",
        "住所": "幸区下平間70-1",
        "24時間利用可能": "365日24時間使用可ではない",
        "利用開始時間": "9時30分",
        "利用終了時間": "１８時・21時"
      }
    },
    {
      "type": "Feature",
      "geometry": {
        "type": "Point",
        "coordinates": [
          139.6639033,
          35.54572664
        ]
      },
      "properties": {
        "台帳番号": 174,
        "設置場所": "南加瀬こども文化センター",
        "設置位置": "2階事務室",
        "住所": "幸区南加瀬2-19-3",
        "24時間利用可能": "365日24時間使用可ではない",
        "利用開始時間": "9時30分",
        "利用終了時間": "１８時・21時"
      }
    },
    {
      "type": "Feature",
      "geometry": {
        "type": "Point",
        "coordinates": [
          139.6622488,
          35.55068594
        ]
      },
      "properties": {
        "台帳番号": 175,
        "設置場所": "北加瀬こども文化センター",
        "設置位置": "事務室",
        "住所": "幸区北加瀬2-12-12",
        "24時間利用可能": "365日24時間使用可ではない",
        "利用開始時間": "9時30分",
        "利用終了時間": "１８時・21時"
      }
    },
    {
      "type": "Feature",
      "geometry": {
        "type": "Point",
        "coordinates": [
          139.6618684,
          35.58190703
        ]
      },
      "properties": {
        "台帳番号": 176,
        "設置場所": "新丸子こども文化センター",
        "設置位置": "事務室",
        "住所": "中原区新丸子町691-7",
        "24時間利用可能": "365日24時間使用可ではない",
        "利用開始時間": "9時30分",
        "利用終了時間": "１８時・21時"
      }
    },
    {
      "type": "Feature",
      "geometry": {
        "type": "Point",
        "coordinates": [
          139.652983,
          35.56904447
        ]
      },
      "properties": {
        "台帳番号": 177,
        "設置場所": "住吉こども文化センター",
        "設置位置": "事務室",
        "住所": "中原区木月祗園町17-6",
        "24時間利用可能": "365日24時間使用可ではない",
        "利用開始時間": "9時30分",
        "利用終了時間": "１８時・21時"
      }
    },
    {
      "type": "Feature",
      "geometry": {
        "type": "Point",
        "coordinates": [
          139.6413129,
          35.56859114
        ]
      },
      "properties": {
        "台帳番号": 178,
        "設置場所": "井田こども文化センター",
        "設置位置": "事務室",
        "住所": "中原区井田杉山町16-38",
        "24時間利用可能": "365日24時間使用可ではない",
        "利用開始時間": "9時30分",
        "利用終了時間": "１８時・21時"
      }
    },
    {
      "type": "Feature",
      "geometry": {
        "type": "Point",
        "coordinates": [
          139.6778541,
          35.55828544
        ]
      },
      "properties": {
        "台帳番号": 179,
        "設置場所": "平間こども文化センター",
        "設置位置": "事務室",
        "住所": "中原区上平間1323",
        "24時間利用可能": "365日24時間使用可ではない",
        "利用開始時間": "9時30分",
        "利用終了時間": "１８時・21時"
      }
    },
    {
      "type": "Feature",
      "geometry": {
        "type": "Point",
        "coordinates": [
          139.6668466,
          35.56476983
        ]
      },
      "properties": {
        "台帳番号": 180,
        "設置場所": "玉川こども文化センター",
        "設置位置": "事務室",
        "住所": "中原区市ノ坪464-2",
        "24時間利用可能": "365日24時間使用可ではない",
        "利用開始時間": "9時30分",
        "利用終了時間": "１８時・21時"
      }
    },
    {
      "type": "Feature",
      "geometry": {
        "type": "Point",
        "coordinates": [
          139.6605988,
          35.56170431
        ]
      },
      "properties": {
        "台帳番号": 181,
        "設置場所": "西加瀬こども文化センター",
        "設置位置": "2階事務室",
        "住所": "中原区西加瀬10-5",
        "24時間利用可能": "365日24時間使用可ではない",
        "利用開始時間": "9時30分",
        "利用終了時間": "１８時・21時"
      }
    },
    {
      "type": "Feature",
      "geometry": {
        "type": "Point",
        "coordinates": [
          139.634192,
          35.58024453
        ]
      },
      "properties": {
        "台帳番号": 182,
        "設置場所": "新城こども文化センター",
        "設置位置": "2階事務室",
        "住所": "中原区下新城1-2-4",
        "24時間利用可能": "365日24時間使用可ではない",
        "利用開始時間": "9時30分",
        "利用終了時間": "１８時・21時"
      }
    },
    {
      "type": "Feature",
      "geometry": {
        "type": "Point",
        "coordinates": [
          139.637201,
          35.58671597
        ]
      },
      "properties": {
        "台帳番号": 183,
        "設置場所": "大戸こども文化センター",
        "設置位置": "事務室",
        "住所": "中原区上小田中2-24-1",
        "24時間利用可能": "365日24時間使用可ではない",
        "利用開始時間": "9時30分",
        "利用終了時間": "１８時・21時"
      }
    },
    {
      "type": "Feature",
      "geometry": {
        "type": "Point",
        "coordinates": [
          139.64542,
          35.590187
        ]
      },
      "properties": {
        "台帳番号": 184,
        "設置場所": "宮内こども文化センター",
        "設置位置": "事務室",
        "住所": "中原区宮内3-4-3",
        "24時間利用可能": "365日24時間使用可ではない",
        "利用開始時間": "9時30分",
        "利用終了時間": "１８時・21時"
      }
    },
    {
      "type": "Feature",
      "geometry": {
        "type": "Point",
        "coordinates": [
          139.6001368,
          35.596141
        ]
      },
      "properties": {
        "台帳番号": 185,
        "設置場所": "上作延こども文化センター",
        "設置位置": "2階事務室",
        "住所": "高津区上作延5-26-55",
        "24時間利用可能": "365日24時間使用可ではない",
        "利用開始時間": "9時30分",
        "利用終了時間": "１８時・21時"
      }
    },
    {
      "type": "Feature",
      "geometry": {
        "type": "Point",
        "coordinates": [
          139.6142939,
          35.60328158
        ]
      },
      "properties": {
        "台帳番号": 186,
        "設置場所": "高津こども文化センター",
        "設置位置": "事務室",
        "住所": "高津区溝口3-10-8",
        "24時間利用可能": "365日24時間使用可ではない",
        "利用開始時間": "9時30分",
        "利用終了時間": "１８時・21時"
      }
    },
    {
      "type": "Feature",
      "geometry": {
        "type": "Point",
        "coordinates": [
          139.6189273,
          35.60147086
        ]
      },
      "properties": {
        "台帳番号": 187,
        "設置場所": "二子こども文化センター",
        "設置位置": "事務室",
        "住所": "高津区二子5-14-61",
        "24時間利用可能": "365日24時間使用可ではない",
        "利用開始時間": "9時30分",
        "利用終了時間": "１８時・21時"
      }
    },
    {
      "type": "Feature",
      "geometry": {
        "type": "Point",
        "coordinates": [
          139.6366487,
          35.597443
        ]
      },
      "properties": {
        "台帳番号": 188,
        "設置場所": "東高津こども文化センター",
        "設置位置": "2階事務室",
        "住所": "高津区下野毛1-3-2",
        "24時間利用可能": "365日24時間使用可ではない",
        "利用開始時間": "9時30分",
        "利用終了時間": "１８時・21時"
      }
    },
    {
      "type": "Feature",
      "geometry": {
        "type": "Point",
        "coordinates": [
          139.6201765,
          35.58934344
        ]
      },
      "properties": {
        "台帳番号": 189,
        "設置場所": "末長こども文化センター",
        "設置位置": "2階事務室",
        "住所": "高津区末長3-25-8",
        "24時間利用可能": "365日24時間使用可ではない",
        "利用開始時間": "9時30分",
        "利用終了時間": "１８時・21時"
      }
    },
    {
      "type": "Feature",
      "geometry": {
        "type": "Point",
        "coordinates": [
          139.6276714,
          35.56985008
        ]
      },
      "properties": {
        "台帳番号": 190,
        "設置場所": "子母口こども文化センター",
        "設置位置": "2階事務室",
        "住所": "高津区子母口983",
        "24時間利用可能": "365日24時間使用可ではない",
        "利用開始時間": "9時30分",
        "利用終了時間": "１８時・21時"
      }
    },
    {
      "type": "Feature",
      "geometry": {
        "type": "Point",
        "coordinates": [
          139.6073636,
          35.58451294
        ]
      },
      "properties": {
        "台帳番号": 191,
        "設置場所": "梶ケ谷こども文化センター",
        "設置位置": "事務室",
        "住所": "高津区梶ケ谷6-1-10",
        "24時間利用可能": "365日24時間使用可ではない",
        "利用開始時間": "9時30分",
        "利用終了時間": "１８時・21時"
      }
    },
    {
      "type": "Feature",
      "geometry": {
        "type": "Point",
        "coordinates": [
          139.5925587,
          35.58491814
        ]
      },
      "properties": {
        "台帳番号": 192,
        "設置場所": "宮崎こども文化センター",
        "設置位置": "事務室",
        "住所": "宮前区宮崎1-7",
        "24時間利用可能": "365日24時間使用可ではない",
        "利用開始時間": "9時30分",
        "利用終了時間": "１８時・21時"
      }
    },
    {
      "type": "Feature",
      "geometry": {
        "type": "Point",
        "coordinates": [
          139.5829887,
          35.57682886
        ]
      },
      "properties": {
        "台帳番号": 193,
        "設置場所": "有馬こども文化センター",
        "設置位置": "2階事務室",
        "住所": "宮前区有馬4-5-2",
        "24時間利用可能": "365日24時間使用可ではない",
        "利用開始時間": "9時30分",
        "利用終了時間": "１８時・21時"
      }
    },
    {
      "type": "Feature",
      "geometry": {
        "type": "Point",
        "coordinates": [
          139.6025393,
          35.57352672
        ]
      },
      "properties": {
        "台帳番号": 194,
        "設置場所": "野川こども文化センター",
        "設置位置": "2階事務室",
        "住所": "宮前区野川台1-25-23",
        "24時間利用可能": "365日24時間使用可ではない",
        "利用開始時間": "9時30分",
        "利用終了時間": "１８時・21時"
      }
    },
    {
      "type": "Feature",
      "geometry": {
        "type": "Point",
        "coordinates": [
          139.58433,
          35.59181606
        ]
      },
      "properties": {
        "台帳番号": 195,
        "設置場所": "宮前平こども文化センター",
        "設置位置": "事務室",
        "住所": "宮前区宮崎6-2",
        "24時間利用可能": "365日24時間使用可ではない",
        "利用開始時間": "9時30分",
        "利用終了時間": "１８時・21時"
      }
    },
    {
      "type": "Feature",
      "geometry": {
        "type": "Point",
        "coordinates": [
          139.5749177,
          35.6018785
        ]
      },
      "properties": {
        "台帳番号": 196,
        "設置場所": "平こども文化センター",
        "設置位置": "2階事務室",
        "住所": "宮前区平2-13-1",
        "24時間利用可能": "365日24時間使用可ではない",
        "利用開始時間": "9時30分",
        "利用終了時間": "１８時・21時"
      }
    },
    {
      "type": "Feature",
      "geometry": {
        "type": "Point",
        "coordinates": [
          139.5679268,
          35.59779208
        ]
      },
      "properties": {
        "台帳番号": 197,
        "設置場所": "白幡台こども文化センター",
        "設置位置": "2階事務室",
        "住所": "宮前区白幡台1-13-1",
        "24時間利用可能": "365日24時間使用可ではない",
        "利用開始時間": "9時30分",
        "利用終了時間": "１８時・21時"
      }
    },
    {
      "type": "Feature",
      "geometry": {
        "type": "Point",
        "coordinates": [
          139.5446735,
          35.59786417
        ]
      },
      "properties": {
        "台帳番号": 198,
        "設置場所": "菅生こども文化センター",
        "設置位置": "事務室",
        "住所": "宮前区菅生ケ丘13-2",
        "24時間利用可能": "365日24時間使用可ではない",
        "利用開始時間": "9時30分",
        "利用終了時間": "１８時・21時"
      }
    },
    {
      "type": "Feature",
      "geometry": {
        "type": "Point",
        "coordinates": [
          139.5560003,
          35.59492686
        ]
      },
      "properties": {
        "台帳番号": 199,
        "設置場所": "蔵敷こども文化センター",
        "設置位置": "事務室",
        "住所": "宮前区菅生5-3-21",
        "24時間利用可能": "365日24時間使用可ではない",
        "利用開始時間": "9時30分",
        "利用終了時間": "１８時・21時"
      }
    },
    {
      "type": "Feature",
      "geometry": {
        "type": "Point",
        "coordinates": [
          139.5609499,
          35.61406181
        ]
      },
      "properties": {
        "台帳番号": 200,
        "設置場所": "枡形こども文化センター",
        "設置位置": "2階事務室",
        "住所": "多摩区枡形6-3-1",
        "24時間利用可能": "365日24時間使用可ではない",
        "利用開始時間": "9時30分",
        "利用終了時間": "１８時・21時"
      }
    },
    {
      "type": "Feature",
      "geometry": {
        "type": "Point",
        "coordinates": [
          139.5747936,
          35.61153825
        ]
      },
      "properties": {
        "台帳番号": 201,
        "設置場所": "長尾こども文化センター",
        "設置位置": "2階事務室",
        "住所": "多摩区長尾1-12-7",
        "24時間利用可能": "365日24時間使用可ではない",
        "利用開始時間": "9時30分",
        "利用終了時間": "１８時・21時"
      }
    },
    {
      "type": "Feature",
      "geometry": {
        "type": "Point",
        "coordinates": [
          139.5354635,
          35.61300694
        ]
      },
      "properties": {
        "台帳番号": 202,
        "設置場所": "錦ケ丘こども文化センター",
        "設置位置": "2階事務室",
        "住所": "多摩区栗谷3-28-2",
        "24時間利用可能": "365日24時間使用可ではない",
        "利用開始時間": "9時30分",
        "利用終了時間": "１８時・21時"
      }
    },
    {
      "type": "Feature",
      "geometry": {
        "type": "Point",
        "coordinates": [
          139.5469886,
          35.60966167
        ]
      },
      "properties": {
        "台帳番号": 203,
        "設置場所": "三田こども文化センター",
        "設置位置": "事務室",
        "住所": "多摩区三田3-7-4",
        "24時間利用可能": "365日24時間使用可ではない",
        "利用開始時間": "9時30分",
        "利用終了時間": "１８時・21時"
      }
    },
    {
      "type": "Feature",
      "geometry": {
        "type": "Point",
        "coordinates": [
          139.5313649,
          35.63109794
        ]
      },
      "properties": {
        "台帳番号": 204,
        "設置場所": "菅こども文化センター",
        "設置位置": "2階事務室",
        "住所": "多摩区菅北浦3-11-1",
        "24時間利用可能": "365日24時間使用可ではない",
        "利用開始時間": "9時30分",
        "利用終了時間": "１８時・21時"
      }
    },
    {
      "type": "Feature",
      "geometry": {
        "type": "Point",
        "coordinates": [
          139.5593618,
          35.62834722
        ]
      },
      "properties": {
        "台帳番号": 205,
        "設置場所": "中野島こども文化センター",
        "設置位置": "事務室",
        "住所": "多摩区中野島4-22-7",
        "24時間利用可能": "365日24時間使用可ではない",
        "利用開始時間": "9時30分",
        "利用終了時間": "１８時・21時"
      }
    },
    {
      "type": "Feature",
      "geometry": {
        "type": "Point",
        "coordinates": [
          139.5332521,
          35.62287697
        ]
      },
      "properties": {
        "台帳番号": 206,
        "設置場所": "南菅こども文化センター",
        "設置位置": "2階事務室",
        "住所": "多摩区菅馬場3-26-1",
        "24時間利用可能": "365日24時間使用可ではない",
        "利用開始時間": "9時30分",
        "利用終了時間": "１８時・21時"
      }
    },
    {
      "type": "Feature",
      "geometry": {
        "type": "Point",
        "coordinates": [
          139.5172474,
          35.60606322
        ]
      },
      "properties": {
        "台帳番号": 207,
        "設置場所": "百合丘こども文化センター",
        "設置位置": "1階事務室",
        "住所": "麻生区百合丘1-11-2",
        "24時間利用可能": "365日24時間使用可ではない",
        "利用開始時間": "9時30分",
        "利用終了時間": "１８時・21時"
      }
    },
    {
      "type": "Feature",
      "geometry": {
        "type": "Point",
        "coordinates": [
          139.5228421,
          35.59475653
        ]
      },
      "properties": {
        "台帳番号": 208,
        "設置場所": "東百合丘こども文化センター",
        "設置位置": "事務室",
        "住所": "麻生区東百合丘3-1-10",
        "24時間利用可能": "365日24時間使用可ではない",
        "利用開始時間": "9時30分",
        "利用終了時間": "１８時・21時"
      }
    },
    {
      "type": "Feature",
      "geometry": {
        "type": "Point",
        "coordinates": [
          139.5064574,
          35.60949867
        ]
      },
      "properties": {
        "台帳番号": 209,
        "設置場所": "千代ケ丘こども文化センター",
        "設置位置": "事務室",
        "住所": "麻生区千代ケ丘1-20-60",
        "24時間利用可能": "365日24時間使用可ではない",
        "利用開始時間": "9時30分",
        "利用終了時間": "１８時・21時"
      }
    },
    {
      "type": "Feature",
      "geometry": {
        "type": "Point",
        "coordinates": [
          139.5125829,
          35.58156178
        ]
      },
      "properties": {
        "台帳番号": 210,
        "設置場所": "王禅寺こども文化センター",
        "設置位置": "2階事務室",
        "住所": "麻生区王禅寺東5-32-15",
        "24時間利用可能": "365日24時間使用可ではない",
        "利用開始時間": "9時30分",
        "利用終了時間": "１８時・21時"
      }
    },
    {
      "type": "Feature",
      "geometry": {
        "type": "Point",
        "coordinates": [
          139.5203265,
          35.58004636
        ]
      },
      "properties": {
        "台帳番号": 211,
        "設置場所": "虹ケ丘こども文化センター",
        "設置位置": "事務室",
        "住所": "麻生区虹ケ丘1-22-1",
        "24時間利用可能": "365日24時間使用可ではない",
        "利用開始時間": "9時30分",
        "利用終了時間": "１８時・21時"
      }
    },
    {
      "type": "Feature",
      "geometry": {
        "type": "Point",
        "coordinates": [
          139.5016468,
          35.58083275
        ]
      },
      "properties": {
        "台帳番号": 212,
        "設置場所": "柿生こども文化センター",
        "設置位置": "事務室",
        "住所": "麻生区上麻生7-18-32",
        "24時間利用可能": "365日24時間使用可ではない",
        "利用開始時間": "9時30分",
        "利用終了時間": "１８時・21時"
      }
    },
    {
      "type": "Feature",
      "geometry": {
        "type": "Point",
        "coordinates": [
          139.5099925,
          35.59054642
        ]
      },
      "properties": {
        "台帳番号": 213,
        "設置場所": "白山こども文化センター",
        "設置位置": "2階事務室",
        "住所": "麻生区白山4-2-2",
        "24時間利用可能": "365日24時間使用可ではない",
        "利用開始時間": "9時30分",
        "利用終了時間": "１８時・21時"
      }
    },
    {
      "type": "Feature",
      "geometry": {
        "type": "Point",
        "coordinates": [
          139.5037896,
          35.59499953
        ]
      },
      "properties": {
        "台帳番号": 214,
        "設置場所": "麻生こども文化センター",
        "設置位置": "2階事務室",
        "住所": "麻生区上麻生4-32-2",
        "24時間利用可能": "365日24時間使用可ではない",
        "利用開始時間": "9時30分",
        "利用終了時間": "１８時・21時"
      }
    },
    {
      "type": "Feature",
      "geometry": {
        "type": "Point",
        "coordinates": [
          139.4917305,
          35.59764894
        ]
      },
      "properties": {
        "台帳番号": 215,
        "設置場所": "片平こども文化センター",
        "設置位置": "2階事務室",
        "住所": "麻生区片平5-25-1",
        "24時間利用可能": "365日24時間使用可ではない",
        "利用開始時間": "9時30分",
        "利用終了時間": "１８時・21時"
      }
    },
    {
      "type": "Feature",
      "geometry": {
        "type": "Point",
        "coordinates": [
          139.4834702,
          35.58117236
        ]
      },
      "properties": {
        "台帳番号": 216,
        "設置場所": "岡上こども文化センター",
        "設置位置": "2階事務室",
        "住所": "麻生区岡上3-13-3",
        "24時間利用可能": "365日24時間使用可ではない",
        "利用開始時間": "9時30分",
        "利用終了時間": "１８時・21時"
      }
    },
    {
      "type": "Feature",
      "geometry": {
        "type": "Point",
        "coordinates": [
          139.65846,
          35.57585
        ]
      },
      "properties": {
        "台帳番号": 217,
        "設置場所": "小杉こども文化センター",
        "設置位置": "事務室",
        "住所": "中原区小杉町3-600コスギサードアベニュー３階",
        "24時間利用可能": "365日24時間使用可ではない",
        "利用開始時間": "9時30分",
        "利用終了時間": "１８時・21時"
      }
    },
    {
      "type": "Feature",
      "geometry": {
        "type": "Point",
        "coordinates": [
          139.71482,
          35.52362
        ]
      },
      "properties": {
        "台帳番号": 218,
        "設置場所": "川崎区保育・子育て総合支援センター",
        "設置位置": "1階保育園側エントランス（事務室前）",
        "住所": "川崎区大島4-17-2",
        "24時間利用可能": "365日24時間使用可ではない",
        "利用開始時間": "7時",
        "利用終了時間": "(平日)20時"
      }
    },
    {
      "type": "Feature",
      "geometry": {
        "type": "Point",
        "coordinates": [
          139.706937,
          35.51154131
        ]
      },
      "properties": {
        "台帳番号": 219,
        "設置場所": "東小田保育園",
        "設置位置": "玄関",
        "住所": "川崎区小田5-14-1",
        "24時間利用可能": "365日24時間使用可ではない",
        "利用開始時間": "7時",
        "利用終了時間": "(平日)20時"
      }
    },
    {
      "type": "Feature",
      "geometry": {
        "type": "Point",
        "coordinates": [
          139.7192976,
          35.53069475
        ]
      },
      "properties": {
        "台帳番号": 220,
        "設置場所": "藤崎保育園",
        "設置位置": "1階事務室前",
        "住所": "川崎区藤崎1-7-1",
        "24時間利用可能": "365日24時間使用可ではない",
        "利用開始時間": "7時",
        "利用終了時間": "(平日)20時"
      }
    },
    {
      "type": "Feature",
      "geometry": {
        "type": "Point",
        "coordinates": [
          139.6837907,
          35.54452364
        ]
      },
      "properties": {
        "台帳番号": 221,
        "設置場所": "古川保育園",
        "設置位置": "事務室入口",
        "住所": "幸区古川町120番地",
        "24時間利用可能": "365日24時間使用可ではない",
        "利用開始時間": "7時",
        "利用終了時間": "(平日)20時"
      }
    },
    {
      "type": "Feature",
      "geometry": {
        "type": "Point",
        "coordinates": [
          139.6928339,
          35.54092236
        ]
      },
      "properties": {
        "台帳番号": 222,
        "設置場所": "幸区河原町1(仮設園舎)",
        "設置位置": "1階玄関",
        "住所": "幸区河原町1",
        "24時間利用可能": "365日24時間使用可ではない",
        "利用開始時間": "7時",
        "利用終了時間": "(平日)20時"
      }
    },
    {
      "type": "Feature",
      "geometry": {
        "type": "Point",
        "coordinates": [
          139.6647931,
          35.54509594
        ]
      },
      "properties": {
        "台帳番号": 223,
        "設置場所": "夢見ヶ崎保育園",
        "設置位置": "1階事務室内",
        "住所": "幸区南加瀬3-4-8",
        "24時間利用可能": "365日24時間使用可ではない",
        "利用開始時間": "7時",
        "利用終了時間": "(平日)20時"
      }
    },
    {
      "type": "Feature",
      "geometry": {
        "type": "Point",
        "coordinates": [
          139.6716185,
          35.57117644
        ]
      },
      "properties": {
        "台帳番号": 224,
        "設置場所": "中丸子保育園",
        "設置位置": "玄関乳児入口横",
        "住所": "中原区中丸子1155",
        "24時間利用可能": "365日24時間使用可ではない",
        "利用開始時間": "7時",
        "利用終了時間": "(平日)20時"
      }
    },
    {
      "type": "Feature",
      "geometry": {
        "type": "Point",
        "coordinates": [
          139.655909,
          35.58255822
        ]
      },
      "properties": {
        "台帳番号": 225,
        "設置場所": "中原区保育・子育て総合支援センター",
        "設置位置": "1階事務室前",
        "住所": "中原区小杉陣屋町２−３−１",
        "24時間利用可能": "365日24時間使用可ではない",
        "利用開始時間": "7時",
        "利用終了時間": "(平日)20時"
      }
    },
    {
      "type": "Feature",
      "geometry": {
        "type": "Point",
        "coordinates": [
          139.6389943,
          35.57745456
        ]
      },
      "properties": {
        "台帳番号": 226,
        "設置場所": "下小田中保育園",
        "設置位置": "1階事務室前",
        "住所": "中原区下小田中4-4-17",
        "24時間利用可能": "365日24時間使用可ではない",
        "利用開始時間": "7時",
        "利用終了時間": "(平日)20時"
      }
    },
    {
      "type": "Feature",
      "geometry": {
        "type": "Point",
        "coordinates": [
          139.6330953,
          35.56772081
        ]
      },
      "properties": {
        "台帳番号": 227,
        "設置場所": "蟹ケ谷保育園",
        "設置位置": "玄関",
        "住所": "高津区蟹ケ谷339",
        "24時間利用可能": "365日24時間使用可ではない",
        "利用開始時間": "7時",
        "利用終了時間": "(平日)20時"
      }
    },
    {
      "type": "Feature",
      "geometry": {
        "type": "Point",
        "coordinates": [
          139.6020894,
          35.60249358
        ]
      },
      "properties": {
        "台帳番号": 228,
        "設置場所": "津田山保育園",
        "設置位置": "1階事務室内",
        "住所": "高津区下作延5-1-10",
        "24時間利用可能": "365日24時間使用可ではない",
        "利用開始時間": "7時",
        "利用終了時間": "(平日)20時"
      }
    },
    {
      "type": "Feature",
      "geometry": {
        "type": "Point",
        "coordinates": [
          139.6062832,
          35.58322047
        ]
      },
      "properties": {
        "台帳番号": 229,
        "設置場所": "梶ケ谷保育園",
        "設置位置": "玄関",
        "住所": "高津区梶ケ谷5-8-2",
        "24時間利用可能": "365日24時間使用可ではない",
        "利用開始時間": "7時",
        "利用終了時間": "(平日)20時"
      }
    },
    {
      "type": "Feature",
      "geometry": {
        "type": "Point",
        "coordinates": [
          139.5611773,
          35.59678256
        ]
      },
      "properties": {
        "台帳番号": 230,
        "設置場所": "菅生保育園",
        "設置位置": "事務室脇",
        "住所": "宮前区初山1-23-15",
        "24時間利用可能": "365日24時間使用可ではない",
        "利用開始時間": "7時",
        "利用終了時間": "(平日)20時"
      }
    },
    {
      "type": "Feature",
      "geometry": {
        "type": "Point",
        "coordinates": [
          139.5853156,
          35.57766553
        ]
      },
      "properties": {
        "台帳番号": 231,
        "設置場所": "中有馬保育園",
        "設置位置": "玄関",
        "住所": "宮前区有馬3-2-10",
        "24時間利用可能": "365日24時間使用可ではない",
        "利用開始時間": "7時",
        "利用終了時間": "(平日)20時"
      }
    },
    {
      "type": "Feature",
      "geometry": {
        "type": "Point",
        "coordinates": [
          139.5734859,
          35.58587343
        ]
      },
      "properties": {
        "台帳番号": 232,
        "設置場所": "宮前区保育・子育て総合支援センター",
        "設置位置": "玄関",
        "住所": "宮前区土橋2-14-1",
        "24時間利用可能": "365日24時間使用可ではない",
        "利用開始時間": "7時",
        "利用終了時間": "(平日)20時"
      }
    },
    {
      "type": "Feature",
      "geometry": {
        "type": "Point",
        "coordinates": [
          139.5287423,
          35.61197964
        ]
      },
      "properties": {
        "台帳番号": 233,
        "設置場所": "生田保育園",
        "設置位置": "事務室入口脇",
        "住所": "多摩区西生田3-15-10",
        "24時間利用可能": "365日24時間使用可ではない",
        "利用開始時間": "7時",
        "利用終了時間": "(平日)20時"
      }
    },
    {
      "type": "Feature",
      "geometry": {
        "type": "Point",
        "coordinates": [
          139.5362669,
          35.63260947
        ]
      },
      "properties": {
        "台帳番号": 234,
        "設置場所": "菅保育園",
        "設置位置": "事務室前廊下",
        "住所": "多摩区菅1-5-24",
        "24時間利用可能": "365日24時間使用可ではない",
        "利用開始時間": "7時",
        "利用終了時間": "(平日)20時"
      }
    },
    {
      "type": "Feature",
      "geometry": {
        "type": "Point",
        "coordinates": [
          139.549055,
          35.62301733
        ]
      },
      "properties": {
        "台帳番号": 235,
        "設置場所": "多摩区保育子育て・総合支援センター土渕保育園",
        "設置位置": "玄関",
        "住所": "多摩区生田2-14-5",
        "24時間利用可能": "365日24時間使用可ではない",
        "利用開始時間": "7時",
        "利用終了時間": "(平日)20時"
      }
    },
    {
      "type": "Feature",
      "geometry": {
        "type": "Point",
        "coordinates": [
          139.4980828,
          35.58269036
        ]
      },
      "properties": {
        "台帳番号": 236,
        "設置場所": "上麻生保育園",
        "設置位置": "玄関",
        "住所": "麻生区上麻生7-2-35",
        "24時間利用可能": "365日24時間使用可ではない",
        "利用開始時間": "7時",
        "利用終了時間": "(平日)20時"
      }
    },
    {
      "type": "Feature",
      "geometry": {
        "type": "Point",
        "coordinates": [
          139.5142237,
          35.61021525
        ]
      },
      "properties": {
        "台帳番号": 237,
        "設置場所": "高石保育園",
        "設置位置": "1階廊下（非常ベル上）",
        "住所": "麻生区高石1-14-15",
        "24時間利用可能": "365日24時間使用可ではない",
        "利用開始時間": "7時",
        "利用終了時間": "(平日)20時"
      }
    },
    {
      "type": "Feature",
      "geometry": {
        "type": "Point",
        "coordinates": [
          139.5101679,
          35.59009983
        ]
      },
      "properties": {
        "台帳番号": 238,
        "設置場所": "白山保育園",
        "設置位置": "事務室斜め前の階段の正面",
        "住所": "麻生区白山4-2-1",
        "24時間利用可能": "365日24時間使用可ではない",
        "利用開始時間": "7時",
        "利用終了時間": "(平日)20時"
      }
    },
    {
      "type": "Feature",
      "geometry": {
        "type": "Point",
        "coordinates": [
          139.6100195,
          35.59762094
        ]
      },
      "properties": {
        "台帳番号": 239,
        "設置場所": "中部児童相談所",
        "設置位置": "事務室入口",
        "住所": "高津区久本１丁目４番１号",
        "24時間利用可能": "365日24時間使用可ではない",
        "利用開始時間": "8時30分",
        "利用終了時間": "17時15分"
      }
    },
    {
      "type": "Feature",
      "geometry": {
        "type": "Point",
        "coordinates": [
          139.5686775,
          35.60839042
        ]
      },
      "properties": {
        "台帳番号": 240,
        "設置場所": "生田緑地ばら苑",
        "設置位置": "管理事務所",
        "住所": "多摩区長尾2-8-1",
        "24時間利用可能": "365日24時間使用可ではない",
        "利用開始時間": "10時00分",
        "利用終了時間": "16時30分"
      }
    },
    {
      "type": "Feature",
      "geometry": {
        "type": "Point",
        "coordinates": [
          139.7092189,
          35.52681544
        ]
      },
      "properties": {
        "台帳番号": 241,
        "設置場所": "川崎富士見球技場",
        "設置位置": "バックスタンド1階",
        "住所": "川崎区富士見2丁目",
        "24時間利用可能": "365日24時間使用可ではない",
        "利用開始時間": "9時00分",
        "利用終了時間": "22時00分"
      }
    },
    {
      "type": "Feature",
      "geometry": {
        "type": "Point",
        "coordinates": [
          139.5554596,
          35.60752617
        ]
      },
      "properties": {
        "台帳番号": 242,
        "設置場所": "川崎国際生田緑地ゴルフ場",
        "設置位置": "コース売店横",
        "住所": "多摩区枡形7-1-10",
        "24時間利用可能": "365日24時間使用可ではない",
        "利用開始時間": "8時00分",
        "利用終了時間": "16時00分"
      }
    },
    {
      "type": "Feature",
      "geometry": {
        "type": "Point",
        "coordinates": [
          139.5554596,
          35.60752617
        ]
      },
      "properties": {
        "台帳番号": 243,
        "設置場所": "川崎国際生田緑地ゴルフ場",
        "設置位置": "クラブハウス内",
        "住所": "多摩区枡形7-1-10",
        "24時間利用可能": "365日24時間使用可ではない",
        "利用開始時間": "7時00分",
        "利用終了時間": "17時00分"
      }
    },
    {
      "type": "Feature",
      "geometry": {
        "type": "Point",
        "coordinates": [
          139.5581422,
          35.60958394
        ]
      },
      "properties": {
        "台帳番号": 244,
        "設置場所": "生田緑地整備事務所",
        "設置位置": "1階事務室内",
        "住所": "多摩区枡形6-26-1",
        "24時間利用可能": "365日24時間使用可ではない",
        "利用開始時間": "8時30分",
        "利用終了時間": "17時00分"
      }
    },
    {
      "type": "Feature",
      "geometry": {
        "type": "Point",
        "coordinates": [
          139.5625084,
          35.6098325
        ]
      },
      "properties": {
        "台帳番号": 245,
        "設置場所": "生田緑地東口ビジターセンター",
        "設置位置": "生田緑地ビジターセンター事務所入口脇",
        "住所": "多摩区枡形7-1-4",
        "24時間利用可能": "365日24時間使用可ではない",
        "利用開始時間": "8時30分",
        "利用終了時間": "17時00分"
      }
    },
    {
      "type": "Feature",
      "geometry": {
        "type": "Point",
        "coordinates": [
          139.5192074,
          35.57250808
        ]
      },
      "properties": {
        "台帳番号": 246,
        "設置場所": "早野聖地公園",
        "設置位置": "管理事務所内",
        "住所": "麻生区早野732",
        "24時間利用可能": "365日24時間使用可ではない",
        "利用開始時間": "8時30分",
        "利用終了時間": "17時30分"
      }
    },
    {
      "type": "Feature",
      "geometry": {
        "type": "Point",
        "coordinates": [
          139.5989498,
          35.60232689
        ]
      },
      "properties": {
        "台帳番号": 247,
        "設置場所": "緑ヶ丘霊園",
        "設置位置": "管理事務所内",
        "住所": "高津区下作延1241",
        "24時間利用可能": "365日24時間使用可ではない",
        "利用開始時間": "8時30分",
        "利用終了時間": "17時30分"
      }
    },
    {
      "type": "Feature",
      "geometry": {
        "type": "Point",
        "coordinates": [
          139.6650852,
          35.54921658
        ]
      },
      "properties": {
        "台帳番号": 248,
        "設置場所": "夢見ヶ崎動物公園",
        "設置位置": "事務所棟",
        "住所": "幸区南加瀬1-2-1",
        "24時間利用可能": "365日24時間使用可ではない",
        "利用開始時間": "8時30分",
        "利用終了時間": "17時15分"
      }
    },
    {
      "type": "Feature",
      "geometry": {
        "type": "Point",
        "coordinates": [
          139.6600306,
          35.57586061
        ]
      },
      "properties": {
        "台帳番号": 249,
        "設置場所": "武蔵小杉駅周辺自転車等駐車場第5施設",
        "設置位置": "管理室横",
        "住所": "中原区新丸子東3丁目 地下",
        "24時間利用可能": "365日24時間使用可ではない",
        "利用開始時間": "4時30分",
        "利用終了時間": "1時30分"
      }
    },
    {
      "type": "Feature",
      "geometry": {
        "type": "Point",
        "coordinates": [
          139.5690908,
          35.62126414
        ]
      },
      "properties": {
        "台帳番号": 250,
        "設置場所": "登戸駅周辺自転車等駐車場第5施設",
        "設置位置": "管理室横",
        "住所": "多摩区登戸3422-4",
        "24時間利用可能": "365日24時間使用可",
        "利用開始時間": "-",
        "利用終了時間": "-"
      }
    },
    {
      "type": "Feature",
      "geometry": {
        "type": "Point",
        "coordinates": [
          139.6058782,
          35.61454181
        ]
      },